[
    {
        "nid": "1980",
        "lat": "45.6808667",
        "lng": "0.4190667",
        "nom": "À la pierre et au moulin…",
        "terrain": "3",
        "difficulte": "3",
        "ville": "Vilhonneur",
        "type":"Zectonic",
        "saison": "14",
        "dpt": "16"
    },
    {
        "nid": "72",
        "lat": "46.0151",
        "lng": "0.6730333",
        "nom": "Remontez le temps, au fil de l'eau",
        "terrain": "2",
        "difficulte": "2",
        "ville": "Confolens",
        "type":"Zabeth",
        "saison": "5",
        "dpt": "16"
    },
    {
        "nid": "193",
        "lat": "45.78245",
        "lng": "-0.0126167",
        "nom": "Acta est fabula",
        "terrain": "3",
        "difficulte": "3",
        "ville": "Saint-Cybardeaux",
        "type":"Zigomatix",
        "saison": "7",
        "dpt": "16"
    },
    {
        "nid": "113",
        "lat": "45.907244",
        "lng": "0.238823",
        "nom": "La cache à l'eau",
        "terrain": "2",
        "difficulte": "2",
        "ville": "Moutonneau",
        "type":"Zeidon",
        "saison": "6",
        "dpt": "16"
    },
    {
        "nid": "75",
        "lat": "45.6932167",
        "lng": "-0.3263333",
        "nom": "Sur les remparts de la cité blanche",
        "terrain": "1",
        "difficulte": "2",
        "ville": "Cognac",
        "type":"Zabeth",
        "saison": "6",
        "dpt": "16"
    },
    {
        "nid": "725",
        "lat": "45.7769167",
        "lng": "0.5522833",
        "nom": "Banzaï les Grolandais !",
        "terrain": "1",
        "difficulte": "1",
        "ville": "Montembœuf",
        "type":"Zinzin",
        "saison": "11",
        "dpt": "16"
    },
    {
        "nid": "192",
        "lat": "45.472741",
        "lng": "-0.157046",
        "nom": "Barbezieux, la créative",
        "terrain": "2",
        "difficulte": "3",
        "ville": "Barbezieux",
        "type":"Zart",
        "saison": "7",
        "dpt": "16"
    },
    {
        "nid": "724",
        "lat": "45.65285",
        "lng": "-0.0853833",
        "nom": "On est tombé sur un os...",
        "terrain": "4",
        "difficulte": "4",
        "ville": "Saint-Simon",
        "type":"Ziclou",
        "saison": "11",
        "dpt": "16"
    },
    {
        "nid": "180",
        "lat": "45.8516667",
        "lng": "0.7653833",
        "nom": "Cassinomagus, par Toutatis !",
        "terrain": "1",
        "difficulte": "2",
        "ville": "Chassenon",
        "type":"Zigomatix",
        "saison": "5",
        "dpt": "16"
    },
    {
        "nid": "2109",
        "lat": "45.2745667",
        "lng": "0.0376833",
        "nom": "Chalais, inimitable !",
        "terrain": "3",
        "difficulte": "2",
        "ville": "Chalais",
        "type":"Zabeth",
        "saison": "14",
        "dpt": "16"
    },
    {
        "nid": "159",
        "lat": "46.0144167",
        "lng": "0.9152167",
        "nom": "Sur le toit de la Charente",
        "terrain": "2",
        "difficulte": "5",
        "ville": "Montrollet",
        "type":"Zouch",
        "saison": "5",
        "dpt": "16"
    },
    {
        "nid": "493",
        "lat": "45.6681333",
        "lng": "0.11425",
        "nom": "La petite reine des z’écluses",
        "terrain": "3",
        "difficulte": "3",
        "ville": "Fléac",
        "type":"Ziclou",
        "saison": "9",
        "dpt": "16"
    },
    {
        "nid": "200",
        "lat": "45.9339667",
        "lng": "0.06755",
        "nom": "Dernier tour avant Compostelle",
        "terrain": "2",
        "difficulte": "3",
        "ville": "Tusson",
        "type":"Zacquet",
        "saison": "7",
        "dpt": "16"
    },
    {
        "nid": "127",
        "lat": "45.4819833",
        "lng": "0.2768167",
        "nom": "La cornuelle royale",
        "terrain": "2",
        "difficulte": "2",
        "ville": "Villebois-Lavalette",
        "type":"Zéfaim",
        "saison": "6",
        "dpt": "16"
    },
    {
        "nid": "990",
        "lat": "45.6780833",
        "lng": "0.2280167",
        "nom": "Fondez pour Ruelle !",
        "terrain": "2",
        "difficulte": "2",
        "ville": "Ruelle-sur-Touvre",
        "type":"Zisséo",
        "saison": "12",
        "dpt": "16"
    },
    {
        "nid": "1518",
        "lat": "45.4755",
        "lng": "0.0315333",
        "nom": "In vigny veritas",
        "terrain": "5",
        "difficulte": "4",
        "ville": "Blanzac / Champagne Vigny",
        "type":"Ziclou",
        "saison": "13",
        "dpt": "16"
    },
    {
        "nid": "478",
        "lat": "45.8942667",
        "lng": "0.5757333",
        "nom": "Joindre la tuile à l’agréable",
        "terrain": "2",
        "difficulte": "2",
        "ville": "Roumazières-Loubert",
        "type":"Zouti",
        "saison": "9",
        "dpt": "16"
    },
    {
        "nid": "199",
        "lat": "45.6139333",
        "lng": "0.4427167",
        "nom": "Les chevaliers du Bandiat",
        "terrain": "2",
        "difficulte": "2",
        "ville": "Marthon",
        "type":"Zeroïk",
        "saison": "7",
        "dpt": "16"
    },
    {
        "nid": "458",
        "lat": "45.67915",
        "lng": "-0.1745667",
        "nom": "La fable des « Trois Chabots »",
        "terrain": "2",
        "difficulte": "2",
        "ville": "Jarnac",
        "type":"Zetoulu",
        "saison": "9",
        "dpt": "16"
    },
    {
        "nid": "419",
        "lat": "45.628533",
        "lng": "-0.027183",
        "nom": "La main dans l’essac !",
        "terrain": "4",
        "difficulte": "3",
        "ville": "Mosnac/Saint-Simeux",
        "type":"Zeidon",
        "saison": "8",
        "dpt": "16"
    },
    {
        "nid": "194",
        "lat": "45.9535667",
        "lng": "0.8601833",
        "nom": "La revanche du Prince Noir",
        "terrain": "1",
        "difficulte": "1",
        "ville": "Brigueuil",
        "type":"Zeroïk",
        "saison": "7",
        "dpt": "16"
    },
    {
        "nid": "48",
        "lat": "45.378",
        "lng": "0.1637167",
        "nom": "Le coteau se rebiffe !",
        "terrain": "3",
        "difficulte": "2",
        "ville": "Juignac",
        "type":"Zarthus",
        "saison": "6",
        "dpt": "16"
    },
    {
        "nid": "47",
        "lat": "45.8030167",
        "lng": "0.1735",
        "nom": "Le génie de la Macarine",
        "terrain": "2",
        "difficulte": "2",
        "ville": "Villejoubert",
        "type":"Zarthus",
        "saison": "6",
        "dpt": "16"
    },
    {
        "nid": "175",
        "lat": "46.051885",
        "lng": "0.683633",
        "nom": "Le parchemin des Sages - Part. 2",
        "terrain": "4",
        "difficulte": "5",
        "ville": null,
        "type":"Légendaire",
        "saison": "6",
        "dpt": "16"
    },
    {
        "nid": "197",
        "lat": "45.429536",
        "lng": "0.269297",
        "nom": "Le trésor de la Nizonne",
        "terrain": "3",
        "difficulte": "3",
        "ville": "Gurat",
        "type":"Zelle",
        "saison": "7",
        "dpt": "16"
    },
    {
        "nid": "1599",
        "lat": "45.8943333",
        "lng": "0.1689",
        "nom": "Les braconniers de l’Etouyer",
        "terrain": "2",
        "difficulte": "3",
        "ville": "Saint-Groux",
        "type":"Zahan",
        "saison": "13",
        "dpt": "16"
    },
    {
        "nid": "74",
        "lat": "46.0002833",
        "lng": "0.3225833",
        "nom": "Les pépites de l'Argent-Or",
        "terrain": "2",
        "difficulte": "2",
        "ville": "Nanteuil-en-Vallée",
        "type":"Zabeth",
        "saison": "6",
        "dpt": "16"
    },
    {
        "nid": "372",
        "lat": "45.9794833",
        "lng": "0.2324833",
        "nom": "Qui vit sans folie n’est pas si sage",
        "terrain": "2",
        "difficulte": "1",
        "ville": "Verteuil-sur-Charente",
        "type":"Zetoulu",
        "saison": "8",
        "dpt": "16"
    },
    {
        "nid": "479",
        "lat": "45.6558",
        "lng": "0.5545333",
        "nom": "Mère-Nature, en baskets !",
        "terrain": "4",
        "difficulte": "3",
        "ville": "Eymouthiers",
        "type":"Zabdo",
        "saison": "9",
        "dpt": "16"
    },
    {
        "nid": "169",
        "lat": "45.82408333",
        "lng": "0.44835",
        "nom": "Mission spéciale pour Bir Hacheim !",
        "terrain": "2",
        "difficulte": "3",
        "ville": "Chasseneuil-sur-Bonnieure",
        "type":"Zonelib",
        "saison": "6",
        "dpt": "16"
    },
    {
        "nid": "988",
        "lat": "46.0315167",
        "lng": "0.7225167",
        "nom": "Mystère et goutte de pomme...",
        "terrain": "2",
        "difficulte": "2",
        "ville": "Esse",
        "type":"Zarthus",
        "saison": "12",
        "dpt": "16"
    },
    {
        "nid": "645",
        "lat": "45.9894167",
        "lng": "0.4096667",
        "nom": "Opération « Maquisard »",
        "terrain": "3",
        "difficulte": "3",
        "ville": "Champagne-Mouton",
        "type":"Zonelib",
        "saison": "10",
        "dpt": "16"
    },
    {
        "nid": "247",
        "lat": "45.6174",
        "lng": "-0.21865",
        "nom": "Panique à l’alambic ",
        "terrain": "2",
        "difficulte": "2",
        "ville": "Segonzac",
        "type":"Zalambic",
        "saison": "7",
        "dpt": "16"
    },
    {
        "nid": "992",
        "lat": "45.67395",
        "lng": "-0.22415",
        "nom": "Petit gourmet cherche grand cru",
        "terrain": "2",
        "difficulte": "3",
        "ville": "Bourg Charente",
        "type":"Zéfaim",
        "saison": "12",
        "dpt": "16"
    },
    {
        "nid": "195",
        "lat": "46.0398",
        "lng": "0.0402833",
        "nom": "Rendez-vous en Gaule chevelue",
        "terrain": "2",
        "difficulte": "2",
        "ville": "Embourie",
        "type":"Zigomatix",
        "saison": "7",
        "dpt": "16"
    },
    {
        "nid": "198",
        "lat": "45.742077",
        "lng": "0.38215",
        "nom": "Zabeth dans les couloirs du temps",
        "terrain": "1",
        "difficulte": "2",
        "ville": "La Rochefoucauld",
        "type":"Zabeth",
        "saison": "7",
        "dpt": "16"
    },
    {
        "nid": "182",
        "lat": "45.6498",
        "lng": "0.1587",
        "nom": "Zegraff fait son Comics Trip !",
        "terrain": "1",
        "difficulte": "2",
        "ville": "Angoulême",
        "type":"Zegraff",
        "saison": "6",
        "dpt": "16"
    },
    {
        "nid": "371",
        "lat": "45.89095",
        "lng": "0.3909167",
        "nom": "Zouti en fait tout un frouin",
        "terrain": "3",
        "difficulte": "3",
        "ville": "Cellefrouin",
        "type":"Zouti",
        "saison": "8",
        "dpt": "16"
    },
    {
        "nid": "196",
        "lat": "45.3002",
        "lng": "-0.1098",
        "nom": "Un drôle de Guêpier",
        "terrain": "3",
        "difficulte": "3",
        "ville": "Guizengeard",
        "type":"Zahan",
        "saison": "7",
        "dpt": "16"
    },
    {
        "nid": "506",
        "lat": "46.3087667",
        "lng": "-0.9929167",
        "nom": "Qui vole un œuf…",
        "terrain": "2",
        "difficulte": "2",
        "ville": "Marans",
        "type":"Zechopp",
        "saison": "9",
        "dpt": "17"
    },
    {
        "nid": "365",
        "lat": "46.0553",
        "lng": "-1.0866333",
        "nom": "À la cache aux moules",
        "terrain": "1",
        "difficulte": "2",
        "ville": "Châtelaillon-Plage",
        "type":"Zéfaim",
        "saison": "8",
        "dpt": "17"
    },
    {
        "nid": "369",
        "lat": "45.9674",
        "lng": "-0.7064",
        "nom": "Un toit pour Ganelon",
        "terrain": "3",
        "difficulte": "2",
        "ville": "Tonnay-Boutonne",
        "type":"Zeidon",
        "saison": "8",
        "dpt": "17"
    },
    {
        "nid": "368",
        "lat": "45.7739833",
        "lng": "-0.4210333",
        "nom": "Une histoire pour Goulebenéze",
        "terrain": "2",
        "difficulte": "2",
        "ville": "Burie",
        "type":"Zelle",
        "saison": "8",
        "dpt": "17"
    },
    {
        "nid": "1000",
        "lat": "45.6779833",
        "lng": "-1.0992833",
        "nom": "Contre vents z’et marais",
        "terrain": "1",
        "difficulte": "1",
        "ville": "Saint-Augustin-sur-Mer",
        "type":"Ziclou",
        "saison": "12",
        "dpt": "17"
    },
    {
        "nid": "204",
        "lat": "46.155227",
        "lng": "-1.149384",
        "nom": "Aux tours de La Rochelle",
        "terrain": "1",
        "difficulte": "2",
        "ville": "La Rochelle",
        "type":"Zisséo",
        "saison": "7",
        "dpt": "17"
    },
    {
        "nid": "723",
        "lat": "46.0227",
        "lng": "-0.3550667",
        "nom": "Asinarius, l'âne qui sait tout...",
        "terrain": "2",
        "difficulte": "3",
        "ville": "Aulnay-de-Saintonge",
        "type":"Zacquet",
        "saison": "11",
        "dpt": "17"
    },
    {
        "nid": "634",
        "lat": "45.3636667",
        "lng": "-0.5301167",
        "nom": "L'attaque du crocothemis",
        "terrain": "2",
        "difficulte": "2",
        "ville": "Soubran / Espace Naturel des Bénissons",
        "type":"Zarthus",
        "saison": "10",
        "dpt": "17"
    },
    {
        "nid": "472",
        "lat": "45.6199833",
        "lng": "-1.0334833",
        "nom": "Back to the Fifties !",
        "terrain": "2",
        "difficulte": "3",
        "ville": "Royan",
        "type":"Zart",
        "saison": "9",
        "dpt": "17"
    },
    {
        "nid": "203",
        "lat": "46.0833167",
        "lng": "-1.0970667",
        "nom": "Beau séjour à Châtel !",
        "terrain": "1",
        "difficulte": "2",
        "ville": "Châtelaillon-Plage",
        "type":"Zart",
        "saison": "7",
        "dpt": "17"
    },
    {
        "nid": "632",
        "lat": "46.102203",
        "lng": "-1.123097",
        "nom": "La bête dans le guidon",
        "terrain": "2",
        "difficulte": "3",
        "ville": "Châtelaillon-Plage / Angoulins-sur-Mer",
        "type":"Ziclou",
        "saison": "10",
        "dpt": "17"
    },
    {
        "nid": "721",
        "lat": "45.7147",
        "lng": "-0.618",
        "nom": "Ça rigole dans le marais !",
        "terrain": "2",
        "difficulte": "3",
        "ville": "Les Gonds",
        "type":"Zahan",
        "saison": "11",
        "dpt": "17"
    },
    {
        "nid": "508",
        "lat": "46.02885",
        "lng": "-0.4879167",
        "nom": "Cherchez la p'tite bête",
        "terrain": "2",
        "difficulte": "2",
        "ville": "La Jarrie Audouin",
        "type":"Zahan",
        "saison": "9",
        "dpt": "17"
    },
    {
        "nid": "366",
        "lat": "45.8344833",
        "lng": "-0.6762",
        "nom": "Serez-vous de taille ?",
        "terrain": "2",
        "difficulte": "4",
        "ville": "Port-d'Envaux",
        "type":"Zouti",
        "saison": "8",
        "dpt": "17"
    },
    {
        "nid": "2727",
        "lat": "45.26825",
        "lng": "-0.3981833",
        "nom": "Dans les bois de Morphée …",
        "terrain": "3",
        "difficulte": "4",
        "ville": "Montendre",
        "type":"Zenight",
        "saison": "15",
        "dpt": "17"
    },
    {
        "nid": "233",
        "lat": "45.4412667",
        "lng": "-0.4283167",
        "nom": "Suivez les signes du Verse-eau",
        "terrain": "2",
        "difficulte": "2",
        "ville": "Jonzac",
        "type":"Zeidon",
        "saison": "7",
        "dpt": "17"
    },
    {
        "nid": "345",
        "lat": "45.7077833",
        "lng": "-1.0283833",
        "nom": "Un grain de sel dans ma Gabelle",
        "terrain": "2",
        "difficulte": "2",
        "ville": "Mornac-sur-Seudre",
        "type":"Zechopp",
        "saison": "8",
        "dpt": "17"
    },
    {
        "nid": "998",
        "lat": "45.7007333",
        "lng": "-0.4938167",
        "nom": "Embarquement immédiat pour Dompierre !",
        "terrain": "2",
        "difficulte": "2",
        "ville": "Dompierre-sur-Charente",
        "type":"Zechopp",
        "saison": "12",
        "dpt": "17"
    },
    {
        "nid": "996",
        "lat": "45.8467333",
        "lng": "-0.7021167",
        "nom": "En avant, vaillant petit tailleur !",
        "terrain": "2",
        "difficulte": "3",
        "ville": "Crazannes / Plassay",
        "type":"Ziclou",
        "saison": "12",
        "dpt": "17"
    },
    {
        "nid": "644",
        "lat": "46.1865333",
        "lng": "-1.3926167",
        "nom": "En selle, moussaillons !",
        "terrain": "2",
        "difficulte": "3",
        "ville": "Le Bois-Plage-en-Ré",
        "type":"Ziclou",
        "saison": "10",
        "dpt": "17"
    },
    {
        "nid": "364",
        "lat": "45.94445",
        "lng": "-0.8926833",
        "nom": "Quatre-cents tonneaux",
        "terrain": "2",
        "difficulte": "2",
        "ville": "Tonnay-Charente",
        "type":"Zalambic",
        "saison": "8",
        "dpt": "17"
    },
    {
        "nid": "2193",
        "lat": "45.67165",
        "lng": "-0.4224",
        "nom": "Garde la pêche avec Prosper !",
        "terrain": "3",
        "difficulte": "3",
        "ville": "Salignac-sur-Charente / Brives-sur-Charente",
        "type":"Ziclou",
        "saison": "14",
        "dpt": "17"
    },
    {
        "nid": "667",
        "lat": "45.8264667",
        "lng": "-0.8699667",
        "nom": "Qui sème le vent, récolte la Mojhette",
        "terrain": "3",
        "difficulte": "2",
        "ville": "Pont l’Abbé d’Arnoult",
        "type":"Zouch",
        "saison": "10",
        "dpt": "17"
    },
    {
        "nid": "367",
        "lat": "45.7387167",
        "lng": "-0.5044",
        "nom": "Il court, il court le Coran...",
        "terrain": "3",
        "difficulte": "1",
        "ville": "Saint-Sauvant",
        "type":"Zeidon",
        "saison": "8",
        "dpt": "17"
    },
    {
        "nid": "657",
        "lat": "45.6159667",
        "lng": "-1.0055",
        "nom": "L’oiseau bleu du Roy Yan",
        "terrain": "2",
        "difficulte": "3",
        "ville": "Royan / Le Parc",
        "type":"Zarthus",
        "saison": "11",
        "dpt": "17"
    },
    {
        "nid": "202",
        "lat": "45.8684",
        "lng": "-1.06845",
        "nom": "L'étoile de pierre",
        "terrain": "3",
        "difficulte": "3",
        "ville": "Hiers-Brouage",
        "type":"Zouti",
        "saison": "7",
        "dpt": "17"
    },
    {
        "nid": "211",
        "lat": "45.867077",
        "lng": "-0.316942",
        "nom": "La Poï’z touch !",
        "terrain": "1",
        "difficulte": "3",
        "ville": "Matha",
        "type":"Zart",
        "saison": "7",
        "dpt": "17"
    },
    {
        "nid": "2733",
        "lat": "46.1050167",
        "lng": "-1.05685",
        "nom": "La Rosière à rosier …",
        "terrain": "1",
        "difficulte": "1",
        "ville": "Salles-sur-Mer",
        "type":"Zabeth",
        "saison": "15",
        "dpt": "17"
    },
    {
        "nid": "210",
        "lat": "45.98635",
        "lng": "-1.0974333",
        "nom": "La sirène de Fouras",
        "terrain": "2",
        "difficulte": "2",
        "ville": "Fouras",
        "type":"Zelle",
        "saison": "7",
        "dpt": "17"
    },
    {
        "nid": "677",
        "lat": "45.809902",
        "lng": "-1.19397",
        "nom": "Le diable s'habille en caban",
        "terrain": "0",
        "difficulte": "5",
        "ville": null,
        "type":"Légendaire",
        "saison": "10",
        "dpt": "17"
    },
    {
        "nid": "212",
        "lat": "45.5729833",
        "lng": "-0.54875",
        "nom": "Le miracle de la Seugne",
        "terrain": "3",
        "difficulte": "3",
        "ville": "Pons",
        "type":"Zacquet",
        "saison": "7",
        "dpt": "17"
    },
    {
        "nid": "370",
        "lat": "45.84445",
        "lng": "-1.20895",
        "nom": "Le petit train des z'artistes",
        "terrain": "2",
        "difficulte": "3",
        "ville": "Saint-Trojan-les-Bains",
        "type":"Zart",
        "saison": "8",
        "dpt": "17"
    },
    {
        "nid": "471",
        "lat": "45.47775",
        "lng": "-0.7946167",
        "nom": "Les moutonniers de l’estuaire",
        "terrain": "3",
        "difficulte": "3",
        "ville": "Mortagne-sur-Gironde",
        "type":"Zirrinzi",
        "saison": "9",
        "dpt": "17"
    },
    {
        "nid": "205",
        "lat": "46.1873",
        "lng": "-1.2035",
        "nom": "Les perles du Plomb",
        "terrain": "2",
        "difficulte": "3",
        "ville": "L'Houmeau",
        "type":"Zarthus",
        "saison": "7",
        "dpt": "17"
    },
    {
        "nid": "1515",
        "lat": "45.2167",
        "lng": "-0.1876833",
        "nom": "Qui veille sur la « vieille dame » ?",
        "terrain": "3",
        "difficulte": "3",
        "ville": "Montguyon",
        "type":"Zouti",
        "saison": "13",
        "dpt": "17"
    },
    {
        "nid": "231",
        "lat": "46.0322",
        "lng": "-1.3780167",
        "nom": "Lost in Oléron !",
        "terrain": "2",
        "difficulte": "3",
        "ville": "Saint-Denis d'Oléron",
        "type":"Zohee",
        "saison": "7",
        "dpt": "17"
    },
    {
        "nid": "2130",
        "lat": "45.8207",
        "lng": "-1.1100667",
        "nom": "Ma reine des bourriches",
        "terrain": "1",
        "difficulte": "2",
        "ville": "Marennes",
        "type":"Zéfaim",
        "saison": "14",
        "dpt": "17"
    },
    {
        "nid": "1512",
        "lat": "45.47875",
        "lng": "-0.49995",
        "nom": "Ziclou, plus fort à Clion !",
        "terrain": "4",
        "difficulte": "3",
        "ville": "Clion-sur-Seugne",
        "type":"Ziclou",
        "saison": "13",
        "dpt": "17"
    },
    {
        "nid": "1509",
        "lat": "45.7447167",
        "lng": "-0.6296833",
        "nom": "Méli-mélo à Mediolanum",
        "terrain": "4",
        "difficulte": "4",
        "ville": "Saintes",
        "type":"Zigomatix",
        "saison": "13",
        "dpt": "17"
    },
    {
        "nid": "1506",
        "lat": "46.1479333",
        "lng": "-1.1256",
        "nom": "Mouille-toi pour le climat !",
        "terrain": "3",
        "difficulte": "5",
        "ville": "Aytré / La Rochelle",
        "type":"Zecolo",
        "saison": "13",
        "dpt": "17"
    },
    {
        "nid": "2730",
        "lat": "45.8188167",
        "lng": "-1.1364167",
        "nom": "Moulinez marais !",
        "terrain": "3",
        "difficulte": "4",
        "ville": "Marennes / Saint-Just-Luzac",
        "type":"Ziclou",
        "saison": "15",
        "dpt": "17"
    },
    {
        "nid": "2136",
        "lat": "45.8921333",
        "lng": "-0.9162833",
        "nom": "Naufrage au Bois Fleuri",
        "terrain": "2",
        "difficulte": "3",
        "ville": "Trizay",
        "type":"Zeidon",
        "saison": "14",
        "dpt": "17"
    },
    {
        "nid": "994",
        "lat": "45.9016",
        "lng": "-0.2736167",
        "nom": "Pas touche à mon Antenne !",
        "terrain": "2",
        "difficulte": "3",
        "ville": "Les Touches-de-Périgny",
        "type":"Zeidon",
        "saison": "12",
        "dpt": "17"
    },
    {
        "nid": "635",
        "lat": "45.7594",
        "lng": "-0.5415333",
        "nom": "Petit potier, c’est mon métier",
        "terrain": "3",
        "difficulte": "2",
        "ville": "La Chapelle-des-Pots",
        "type":"Zouti",
        "saison": "10",
        "dpt": "17"
    },
    {
        "nid": "633",
        "lat": "45.8793333",
        "lng": "-0.6792",
        "nom": "Pierrot voulait être un artiste",
        "terrain": "3",
        "difficulte": "3",
        "ville": "Saint-Savinien",
        "type":"Zart",
        "saison": "10",
        "dpt": "17"
    },
    {
        "nid": "722",
        "lat": "45.9427833",
        "lng": "-0.5243167",
        "nom": "Qu'est-ce qu'on a fait des tonneaux ?",
        "terrain": "2",
        "difficulte": "3",
        "ville": "Saint-Jean-d’Angély",
        "type":"Zechopp",
        "saison": "11",
        "dpt": "17"
    },
    {
        "nid": "480",
        "lat": "46.22415",
        "lng": "-1.4381367",
        "nom": "Ré, une note de mystère…",
        "terrain": "1",
        "difficulte": "3",
        "ville": "Loix-en-Ré",
        "type":"Zohee",
        "saison": "9",
        "dpt": "17"
    },
    {
        "nid": "469",
        "lat": "45.93665",
        "lng": "-0.9654",
        "nom": "Rochefort, paré au « décordage »",
        "terrain": "2",
        "difficulte": "2",
        "ville": "Rochefort",
        "type":"Zisséo",
        "saison": "9",
        "dpt": "17"
    },
    {
        "nid": "346",
        "lat": "46.1053333",
        "lng": "-0.75215",
        "nom": "Surgères, inspire-moi !",
        "terrain": "1",
        "difficulte": "2",
        "ville": "Surgères",
        "type":"Zabeth",
        "saison": "8",
        "dpt": "17"
    },
    {
        "nid": "344",
        "lat": "45.5349167",
        "lng": "-0.9065833",
        "nom": "Tout le talon du monde",
        "terrain": "3",
        "difficulte": "2",
        "ville": "Talmont-sur-Gironde",
        "type":"Zabeth",
        "saison": "8",
        "dpt": "17"
    },
    {
        "nid": "726",
        "lat": "45.4143667",
        "lng": "1.5956667",
        "nom": "À fond les wagons !",
        "terrain": "3",
        "difficulte": "3",
        "ville": "Espartignac / Uzerche",
        "type":"Ziclou",
        "saison": "11",
        "dpt": "19"
    },
    {
        "nid": "183",
        "lat": "45.6423667",
        "lng": "2.09555",
        "nom": "Les Poï'z en cache verte",
        "terrain": "3",
        "difficulte": "3",
        "ville": "Millevaches / Parc Naturel Régional",
        "type":"Zecolo",
        "saison": "6",
        "dpt": "19"
    },
    {
        "nid": "650",
        "lat": "44.8686833",
        "lng": "2.0994",
        "nom": "Zouch’ à l’école buissonnière",
        "terrain": "3",
        "difficulte": "3",
        "ville": "Sousceyrac / Forêt de la Luzette",
        "type":"Zouch",
        "saison": "10",
        "dpt": "19"
    },
    {
        "nid": "2715",
        "lat": "45.2552833",
        "lng": "1.4773333",
        "nom": "L’affaire est d’Al’sac !",
        "terrain": "2",
        "difficulte": "2",
        "ville": "Allassac",
        "type":"Zouti",
        "saison": "15",
        "dpt": "19"
    },
    {
        "nid": "66",
        "lat": "45.099444444444",
        "lng": "1.9455555555556",
        "nom": "Les ruelles secrètes d’Argentat",
        "terrain": "2",
        "difficulte": "3",
        "ville": "Argentat",
        "type":"Zabeth",
        "saison": "3",
        "dpt": "19"
    },
    {
        "nid": "284",
        "lat": "44.80475",
        "lng": "1.62615",
        "nom": "Sur le rocher de Saint Amadour",
        "terrain": "4",
        "difficulte": "3",
        "ville": "Rocamadour",
        "type":"Zacquet",
        "saison": "8",
        "dpt": "19"
    },
    {
        "nid": "93",
        "lat": "45.68345",
        "lng": "2.0279333",
        "nom": "Aux contes de la Pierre Levée",
        "terrain": "3",
        "difficulte": "2",
        "ville": "Peyrelevade",
        "type":"Zelle",
        "saison": "5",
        "dpt": "19"
    },
    {
        "nid": "751",
        "lat": "45.3766333",
        "lng": "2.2947667",
        "nom": "Aventures survoltées !",
        "terrain": "4",
        "difficulte": "4",
        "ville": "Neuvic",
        "type":"Zouti",
        "saison": "11",
        "dpt": "19"
    },
    {
        "nid": "1503",
        "lat": "45.5461167",
        "lng": "2.3073167",
        "nom": "Battle courtoise",
        "terrain": "3",
        "difficulte": "1",
        "ville": "Ussel",
        "type":"Zetoulu",
        "saison": "13",
        "dpt": "19"
    },
    {
        "nid": "28",
        "lat": "45.411014443142",
        "lng": "1.9385719299316",
        "nom": "Entre landes et forêts",
        "terrain": "3",
        "difficulte": "3",
        "ville": "Sarran",
        "type":"Zarthus",
        "saison": "1",
        "dpt": "19"
    },
    {
        "nid": "283",
        "lat": "45.2914",
        "lng": "1.9512167",
        "nom": "Réunion de chantier",
        "terrain": "3",
        "difficulte": "2",
        "ville": "Clergoux",
        "type":"Zouch",
        "saison": "8",
        "dpt": "19"
    },
    {
        "nid": "53",
        "lat": "45.22345",
        "lng": "1.5812833",
        "nom": "Croix de pierre, croix de fer…",
        "terrain": "1",
        "difficulte": "1",
        "ville": "Sainte-Féréole",
        "type":"Zabeth",
        "saison": "2",
        "dpt": "19"
    },
    {
        "nid": "126",
        "lat": "45.000278",
        "lng": "1.742337",
        "nom": "Curemonte, le village des trois",
        "terrain": "2",
        "difficulte": "2",
        "ville": "Curemonte",
        "type":"Zeroïk",
        "saison": "4",
        "dpt": "19"
    },
    {
        "nid": "154",
        "lat": "45.396665",
        "lng": "2.480639",
        "nom": "D'un Bort à l'autre, au sommet des z'orgues",
        "terrain": "4",
        "difficulte": "5",
        "ville": "Bort-les-Orgues",
        "type":"Zepapeur",
        "saison": "6",
        "dpt": "19"
    },
    {
        "nid": "77",
        "lat": "45.095943213783",
        "lng": "1.4661383628845",
        "nom": "De l’eau à la pierre du Causse",
        "terrain": "5",
        "difficulte": "5",
        "ville": "Lissac-sur-Couze / Chasteaux",
        "type":"Zabdo",
        "saison": "1",
        "dpt": "19"
    },
    {
        "nid": "118",
        "lat": "45.2270667",
        "lng": "1.5232667",
        "nom": "Donzenac, cité médiévale",
        "terrain": "2",
        "difficulte": "2",
        "ville": "Donzenac",
        "type":"Zeroïk",
        "saison": "2",
        "dpt": "19"
    },
    {
        "nid": "936",
        "lat": "45.2329167",
        "lng": "1.89795",
        "nom": "Du tacot, tac !",
        "terrain": "5",
        "difficulte": "3",
        "ville": "Espagnac",
        "type":"Ziclou",
        "saison": "12",
        "dpt": "19"
    },
    {
        "nid": "148",
        "lat": "45.2051667",
        "lng": "1.8455167",
        "nom": "D’une pierre blanche",
        "terrain": "3",
        "difficulte": "2",
        "ville": "Marc-la-Tour",
        "type":"Zart",
        "saison": "6",
        "dpt": "19"
    },
    {
        "nid": "1479",
        "lat": "45.4050333",
        "lng": "2.04455",
        "nom": "Égletons, c’est du béton !",
        "terrain": "3",
        "difficulte": "3",
        "ville": "Égletons",
        "type":"Zaitek",
        "saison": "13",
        "dpt": "19"
    },
    {
        "nid": "176",
        "lat": "45.128904",
        "lng": "1.658957",
        "nom": "Faux départ pour Saint Jacques",
        "terrain": "3",
        "difficulte": "3",
        "ville": "Lanteuil",
        "type":"Zacquet",
        "saison": "4",
        "dpt": "19"
    },
    {
        "nid": "1482",
        "lat": "45.5580333",
        "lng": "1.6500667",
        "nom": "Oh la vache !",
        "terrain": "2",
        "difficulte": "1",
        "ville": "Meilhards",
        "type":"Zirrinzi",
        "saison": "13",
        "dpt": "19"
    },
    {
        "nid": "527",
        "lat": "44.8764",
        "lng": "1.6878",
        "nom": "La guerre du Fieux",
        "terrain": "2",
        "difficulte": "2",
        "ville": "Miers",
        "type":"Zilex",
        "saison": "9",
        "dpt": "19"
    },
    {
        "nid": "103",
        "lat": "45.155017924243",
        "lng": "1.8711090087891",
        "nom": "Suivez le bruit des cascades",
        "terrain": "3",
        "difficulte": "3",
        "ville": "Forges",
        "type":"Zeidon",
        "saison": "1",
        "dpt": "19"
    },
    {
        "nid": "529",
        "lat": "45.2182167",
        "lng": "2.0429333",
        "nom": "Ne quittez pas des yeux le busatier",
        "terrain": "5",
        "difficulte": "4",
        "ville": "Marcillac-la-Croisille (Roc du Busatier)",
        "type":"Zahan",
        "saison": "11",
        "dpt": "19"
    },
    {
        "nid": "190",
        "lat": "45.302517",
        "lng": "1.851567",
        "nom": "Gimel : l'histoire au fil des cascades",
        "terrain": "4",
        "difficulte": "2",
        "ville": "Gimel-les-Cascades",
        "type":"Zeidon",
        "saison": "7",
        "dpt": "19"
    },
    {
        "nid": "25",
        "lat": "45.536821050391",
        "lng": "2.1460890769959",
        "nom": "Graniticache",
        "terrain": "3",
        "difficulte": "3",
        "ville": "Meymac",
        "type":"Zarthus",
        "saison": "1",
        "dpt": "19"
    },
    {
        "nid": "727",
        "lat": "45.3983333",
        "lng": "1.3836333",
        "nom": "Pompadour, c'est mon dada",
        "terrain": "2",
        "difficulte": "2",
        "ville": "Arnac-Pompadour",
        "type":"Zahan",
        "saison": "11",
        "dpt": "19"
    },
    {
        "nid": "110",
        "lat": "45.2229167",
        "lng": "2.1812833",
        "nom": "Plongeon au pays des gabariers",
        "terrain": "1",
        "difficulte": "1",
        "ville": "Spontour",
        "type":"Zeidon",
        "saison": "4",
        "dpt": "19"
    },
    {
        "nid": "2145",
        "lat": "45.681467",
        "lng": "1.9462",
        "nom": "Journal d'un maquisard",
        "terrain": "3",
        "difficulte": "4",
        "ville": "Tarnac",
        "type":"Zonelib",
        "saison": "14",
        "dpt": "19"
    },
    {
        "nid": "132",
        "lat": "45.1023667",
        "lng": "1.81315",
        "nom": "Le cochon dans tous ses z'états",
        "terrain": "2",
        "difficulte": "2",
        "ville": "Neuville",
        "type":"Zéfaim",
        "saison": "2",
        "dpt": "19"
    },
    {
        "nid": "1548",
        "lat": "45.5232",
        "lng": "2.1261333",
        "nom": "Le lac dessine…",
        "terrain": "2",
        "difficulte": "2",
        "ville": "Lac de Séchemailles – Ambrugeat",
        "type":"Zart",
        "saison": "13",
        "dpt": "19"
    },
    {
        "nid": "642",
        "lat": "45.5153333",
        "lng": "1.8738833",
        "nom": "Le plateau de mille bornes",
        "terrain": "4",
        "difficulte": "4",
        "ville": "Massif des Monédières / Plateau de Millevaches",
       "type":"Ziraider",
        "saison": "10",
        "dpt": "19"
    },
    {
        "nid": "624",
        "lat": "45.6757",
        "lng": "2.38675",
        "nom": "Le sommet des légendes",
        "terrain": "5",
        "difficulte": "5",
        "ville": "Lamazière-Haute",
        "type":"Ziclou",
        "saison": "10",
        "dpt": "19"
    },
    {
        "nid": "166",
        "lat": "45.212464",
        "lng": "1.542807",
        "nom": "Le trou du loup",
        "terrain": "3",
        "difficulte": "2",
        "ville": "Sainte-Féréole",
        "type":"Zonelib",
        "saison": "4",
        "dpt": "19"
    },
    {
        "nid": "281",
        "lat": "44.9089",
        "lng": "1.8820167",
        "nom": "Le village trompe l’œil",
        "terrain": "2",
        "difficulte": "1",
        "ville": "Cornac",
        "type":"Zegraff",
        "saison": "8",
        "dpt": "19"
    },
    {
        "nid": "123",
        "lat": "45.254959",
        "lng": "1.2942820000001",
        "nom": "Les contemplations de Saint Robert",
        "terrain": "3",
        "difficulte": "3",
        "ville": "Saint-Robert",
        "type":"Zeroïk",
        "saison": "2",
        "dpt": "19"
    },
    {
        "nid": "2583",
        "lat": "45.2480167",
        "lng": "1.3272167",
        "nom": "Les hauts de Hurlement",
        "terrain": "4",
        "difficulte": "3",
        "ville": "Ayen",
        "type":"Zarthus",
        "saison": "15",
        "dpt": "19"
    },
    {
        "nid": "59",
        "lat": "45.0959",
        "lng": "1.4637",
        "nom": "Lissac à travers les âges",
        "terrain": "3",
        "difficulte": "2",
        "ville": "Lissac-sur-Couze",
        "type":"Zabeth",
        "saison": "3",
        "dpt": "19"
    },
    {
        "nid": "526",
        "lat": "44.9374333",
        "lng": "1.6072167",
        "nom": "Martel, en tête s'affiche",
        "terrain": "2",
        "difficulte": "3",
        "ville": "Martel",
        "type":"Zechopp",
        "saison": "9",
        "dpt": "19"
    },
    {
        "nid": "56",
        "lat": "45.0557833",
        "lng": "1.67415",
        "nom": "Meyssac, au gré du grès rouge",
        "terrain": "1",
        "difficulte": "2",
        "ville": "Meyssac",
        "type":"Zabeth",
        "saison": "3",
        "dpt": "19"
    },
    {
        "nid": "1767",
        "lat": "45.0689833",
        "lng": "1.73905",
        "nom": "Mon Pescher mignon",
        "terrain": "2",
        "difficulte": "2",
        "ville": "Le Pescher",
        "type":"Zarthus",
        "saison": "13",
        "dpt": "19"
    },
    {
        "nid": "1551",
        "lat": "45.1619167",
        "lng": "1.53375",
        "nom": "Moustache gracias !",
        "terrain": "2",
        "difficulte": "3",
        "ville": "Brive-la-Gaillarde",
        "type":"Zinzin",
        "saison": "13",
        "dpt": "19"
    },
    {
        "nid": "70",
        "lat": "45.178888888889",
        "lng": "1.6769444444444",
        "nom": "Obazine : au temps des monastères",
        "terrain": "3",
        "difficulte": "2",
        "ville": "Aubazine",
        "type":"Zabeth",
        "saison": "4",
        "dpt": "19"
    },
    {
        "nid": "57",
        "lat": "44.98185",
        "lng": "1.71345",
        "nom": "Sur les traces de Néandertal",
        "terrain": "3",
        "difficulte": "2",
        "ville": "La Chapelle-aux-Saints",
        "type":"Zabeth",
        "saison": "3",
        "dpt": "19"
    },
    {
        "nid": "92",
        "lat": "45.073853980175",
        "lng": "1.6171360015869",
        "nom": "Sur la trace de la fée aux loups",
        "terrain": "3",
        "difficulte": "2",
        "ville": "Noailhac",
        "type":"Zelle",
        "saison": "1",
        "dpt": "19"
    },
    {
        "nid": "102",
        "lat": "44.978187054367",
        "lng": "1.8380856513977",
        "nom": "Où la rivière Dordogne rencontre l'Histoire",
        "terrain": "2",
        "difficulte": "2",
        "ville": "Beaulieu-sur-Dordogne",
        "type":"Zeidon",
        "saison": "1",
        "dpt": "19"
    },
    {
        "nid": "312",
        "lat": "45.2009167",
        "lng": "2.142",
        "nom": "Où les sens prennent racines",
        "terrain": "3",
        "difficulte": "3",
        "ville": "Auriac / Sothys",
        "type":"Zecolo",
        "saison": "8",
        "dpt": "19"
    },
    {
        "nid": "161",
        "lat": "45.58975",
        "lng": "1.7233",
        "nom": "Panique dans l'arboretum !",
        "terrain": "2",
        "difficulte": "2",
        "ville": "Chamberet",
        "type":"Zouch",
        "saison": "6",
        "dpt": "19"
    },
    {
        "nid": "226",
        "lat": "45.143867",
        "lng": "1.305983",
        "nom": "Petra e Ignis : la Pierre et le Feu",
        "terrain": "3",
        "difficulte": "3",
        "ville": "Cublac",
        "type":"Zectonic",
        "saison": "8",
        "dpt": "19"
    },
    {
        "nid": "640",
        "lat": "45.3687167",
        "lng": "1.5363333",
        "nom": "Qui a peur du Grand Méchant Loup ?",
        "terrain": "2",
        "difficulte": "4",
        "ville": "Lac de Poncharal / Vigeois",
        "type":"Zenight",
        "saison": "10",
        "dpt": "19"
    },
    {
        "nid": "930",
        "lat": "45.4286167",
        "lng": "1.3053333",
        "nom": "Ségur, y’a pas plus sûr !",
        "terrain": "2",
        "difficulte": "3",
        "ville": "Ségur-le-Château",
        "type":"Zeidon",
        "saison": "12",
        "dpt": "19"
    },
    {
        "nid": "44",
        "lat": "45.696503830164",
        "lng": "2.1292755126954",
        "nom": "Saint Sagittaire, premier apôtre de la montagne limousine",
        "terrain": "3",
        "difficulte": "2",
        "ville": "Saint-Setiers",
        "type":"Zarthus",
        "saison": "4",
        "dpt": "19"
    },
    {
        "nid": "82",
        "lat": "45.376944444444",
        "lng": "1.8827777777778",
        "nom": "Sur les traces des meuniers d’antan",
        "terrain": "3",
        "difficulte": "3",
        "ville": "Corrèze",
        "type":"Zouti",
        "saison": "5",
        "dpt": "19"
    },
    {
        "nid": "256",
        "lat": "45.039617",
        "lng": "2.099283",
        "nom": "Une belle guérisseuse à Carbonnières",
        "terrain": "4",
        "difficulte": "3",
        "ville": "Goulles",
        "type":"Zelle",
        "saison": "7",
        "dpt": "19"
    },
    {
        "nid": "528",
        "lat": "45.5362833",
        "lng": "1.79375",
        "nom": "Treignac, aux mille ressources",
        "terrain": "3",
        "difficulte": "2",
        "ville": "Treignac",
        "type":"Zechopp",
        "saison": "9",
        "dpt": "19"
    },
    {
        "nid": "2712",
        "lat": "45.4247833",
        "lng": "1.5664",
        "nom": "Uzerche, la perle rare...",
        "terrain": "3",
        "difficulte": "3",
        "ville": "Uzerche",
        "type":"Zeidon",
        "saison": "15",
        "dpt": "19"
    },
    {
        "nid": "60",
        "lat": "45.2594667",
        "lng": "1.3636333",
        "nom": "Vartum : aqua et grès",
        "terrain": "2",
        "difficulte": "2",
        "ville": "Vars-sur-Roseix",
        "type":"Zabeth",
        "saison": "3",
        "dpt": "19"
    },
    {
        "nid": "128",
        "lat": "46.34835",
        "lng": "2.2147333",
        "nom": "À la conquête du château de Boussac",
        "terrain": "2",
        "difficulte": "2",
        "ville": "Boussac",
        "type":"Zeroïk",
        "saison": "6",
        "dpt": "23"
    },
    {
        "nid": "100",
        "lat": "45.8138167",
        "lng": "1.9072167",
        "nom": "À la poursuite de la Femme-Fée",
        "terrain": "3",
        "difficulte": "3",
        "ville": "Royère-de-Vassivière",
        "type":"Zelle",
        "saison": "6",
        "dpt": "23"
    },
    {
        "nid": "622",
        "lat": "46.31005",
        "lng": "2.2308833",
        "nom": "À pas de géants...",
        "terrain": "3",
        "difficulte": "3",
        "ville": "Les Pierres Jaumâtres (Toulx-Sainte-Croix)",
        "type":"Zectonic",
        "saison": "10",
        "dpt": "23"
    },
    {
        "nid": "1360",
        "lat": "46.0908667",
        "lng": "2.0546",
        "nom": "Acitodunum, les messagers ...",
        "terrain": "3",
        "difficulte": "3",
        "ville": "Moutier d’Ahun / Ahun",
        "type":"Zigomatix",
        "saison": "13",
        "dpt": "23"
    },
    {
        "nid": "84",
        "lat": "45.98435",
        "lng": "1.85335",
        "nom": "Au pays de Martin Nadaud",
        "terrain": "4",
        "difficulte": "2",
        "ville": "La Martinèche",
        "type":"Zouti",
        "saison": "5",
        "dpt": "23"
    },
    {
        "nid": "1363",
        "lat": "46.11955",
        "lng": "1.62785",
        "nom": "Bêêênévent, suivez l’mautou !",
        "terrain": "3",
        "difficulte": "3",
        "ville": "Bénévent l’Abbaye",
        "type":"Zirrinzi",
        "saison": "13",
        "dpt": "23"
    },
    {
        "nid": "2124",
        "lat": "46.0410833",
        "lng": "1.57535",
        "nom": "C'est l'amour à l'alpage !",
        "terrain": "4",
        "difficulte": "3",
        "ville": "Saint-Goussaud",
        "type":"Zelle",
        "saison": "14",
        "dpt": "23"
    },
    {
        "nid": "2691",
        "lat": "46.00035",
        "lng": "1.607",
        "nom": "Castel-marcheurs en herbes",
        "terrain": "4",
        "difficulte": "3",
        "ville": "Châtelus-le-Marcheix",
        "type":"Zarthus",
        "saison": "15",
        "dpt": "23"
    },
    {
        "nid": "177",
        "lat": "46.2427333",
        "lng": "1.5045667",
        "nom": "Commando de nuit, au secours de Bridiers !",
        "terrain": "2",
        "difficulte": "4",
        "ville": "La Souterraine",
        "type":"Zenight",
        "saison": "5",
        "dpt": "23"
    },
    {
        "nid": "83",
        "lat": "46.0365333",
        "lng": "2.03715",
        "nom": "De pierre en pierre jusqu'au Masgot",
        "terrain": "3",
        "difficulte": "2",
        "ville": "Fransèches",
        "type":"Zouti",
        "saison": "2",
        "dpt": "23"
    },
    {
        "nid": "2697",
        "lat": "46.26785",
        "lng": "1.8644167",
        "nom": "Diableries z'en cascades",
        "terrain": "4",
        "difficulte": "3",
        "ville": "Anzême",
        "type":"Zeidon",
        "saison": "15",
        "dpt": "23"
    },
    {
        "nid": "89",
        "lat": "46.18665",
        "lng": "2.2573833333333",
        "nom": "Echec et mat",
        "terrain": "3",
        "difficulte": "2",
        "ville": "Gouzon",
        "type":"Zouti",
        "saison": "4",
        "dpt": "23"
    },
    {
        "nid": "45",
        "lat": "45.9064833",
        "lng": "2.035",
        "nom": "Entre histoires et nature",
        "terrain": "3",
        "difficulte": "2",
        "ville": "Vallière",
        "type":"Zarthus",
        "saison": "5",
        "dpt": "23"
    },
    {
        "nid": "760",
        "lat": "46.4037833",
        "lng": "2.01475",
        "nom": "Et la bobinette cherra...",
        "terrain": "3",
        "difficulte": "3",
        "ville": "La Cellette / Tercillat",
        "type":"Zetoulu",
        "saison": "11",
        "dpt": "23"
    },
    {
        "nid": "2532",
        "lat": "46.1740667",
        "lng": "2.4871167",
        "nom": "Evaux miraculeuse !",
        "terrain": "3",
        "difficulte": "2",
        "ville": "Evaux-les-Bains",
        "type":"Zelle",
        "saison": "15",
        "dpt": "23"
    },
    {
        "nid": "1359",
        "lat": "45.8835167",
        "lng": "2.1728667",
        "nom": "Felletin, mon précieux...",
        "terrain": "3",
        "difficulte": "2",
        "ville": "Felletin",
        "type":"Zouti",
        "saison": "13",
        "dpt": "23"
    },
    {
        "nid": "638",
        "lat": "46.054",
        "lng": "2.5007167",
        "nom": "Fonty file à travers champs",
        "terrain": "4",
        "difficulte": "3",
        "ville": "Rougnat",
        "type":"Ziclou",
        "saison": "10",
        "dpt": "23"
    },
    {
        "nid": "1366",
        "lat": "45.9738667",
        "lng": "2.4306833",
        "nom": "Sermur a des z’oreilles…",
        "terrain": "3",
        "difficulte": "3",
        "ville": "Sermur",
        "type":"Zectonic",
        "saison": "13",
        "dpt": "23"
    },
    {
        "nid": "2121",
        "lat": "46.1114333",
        "lng": "2.1762333",
        "nom": "Ils sont beaux mes p’tits chevaux !",
        "terrain": "2",
        "difficulte": "2",
        "ville": "Chénérailles",
        "type":"Zechopp",
        "saison": "14",
        "dpt": "23"
    },
    {
        "nid": "623",
        "lat": "46.02745",
        "lng": "2.5018333",
        "nom": "Ils sont « foux » ces Romains",
        "terrain": "2",
        "difficulte": "2",
        "ville": "Auzances",
        "type":"Zigomatix",
        "saison": "10",
        "dpt": "23"
    },
    {
        "nid": "119",
        "lat": "46.3489167",
        "lng": "1.8876167",
        "nom": "La Malcache",
        "terrain": "3",
        "difficulte": "3",
        "ville": "Malval",
        "type":"Zeroïk",
        "saison": "2",
        "dpt": "23"
    },
    {
        "nid": "974",
        "lat": "46.3081333",
        "lng": "1.7705833",
        "nom": "La nature, ça cartonne !",
        "terrain": "3",
        "difficulte": "3",
        "ville": "La Celle-Dunoise",
        "type":"Zouti",
        "saison": "12",
        "dpt": "23"
    },
    {
        "nid": "2127",
        "lat": "46.2977167",
        "lng": "1.8233833",
        "nom": "La Résistance, c'est du sport !",
        "terrain": "5",
        "difficulte": "4",
        "ville": "Le Bourg-d’Hem",
        "type":"Zabdo",
        "saison": "14",
        "dpt": "23"
    },
    {
        "nid": "37",
        "lat": "46.15855",
        "lng": "2.0746",
        "nom": "La tour Eiffel en Creuse",
        "terrain": "2",
        "difficulte": "2",
        "ville": "Vigeville",
        "type":"Zarthus",
        "saison": "2",
        "dpt": "23"
    },
    {
        "nid": "162",
        "lat": "46.24365",
        "lng": "1.55495",
        "nom": "Le pèlerinage de Sainte Eglantine",
        "terrain": "3",
        "difficulte": "3",
        "ville": "Noth",
        "type":"Zouch",
        "saison": "6",
        "dpt": "23"
    },
    {
        "nid": "758",
        "lat": "46.1394",
        "lng": "1.8833833",
        "nom": "Les défis du Puy de Gaudy",
        "terrain": "4",
        "difficulte": "3",
        "ville": "Sainte-Feyre",
        "type":"Zelle",
        "saison": "11",
        "dpt": "23"
    },
    {
        "nid": "1358",
        "lat": "45.9560333",
        "lng": "2.1701",
        "nom": "Les Poï'z tissent Aubusson",
        "terrain": "3",
        "difficulte": "2",
        "ville": "Aubusson",
        "type":"Zart",
        "saison": "13",
        "dpt": "23"
    },
    {
        "nid": "637",
        "lat": "46.1888667",
        "lng": "2.4257667",
        "nom": "L’affaire du collier",
        "terrain": "3",
        "difficulte": "3",
        "ville": "Chambon-sur-Voueize",
        "type":"Zabeth",
        "saison": "10",
        "dpt": "23"
    },
    {
        "nid": "1370",
        "lat": "46.3858167",
        "lng": "1.5467667",
        "nom": "Mais où est donc passée la Zème compagnie ?",
        "terrain": "3",
        "difficulte": "4",
        "ville": "Saint-Sébastien",
        "type":"Zonelib",
        "saison": "13",
        "dpt": "23"
    },
    {
        "nid": "1368",
        "lat": "46.2320667",
        "lng": "2.5139333",
        "nom": "Ménagez la chèvre et le loup...",
        "terrain": "4",
        "difficulte": "4",
        "ville": "Plateau d’Entraigues (Evaux-les-Bains / Budelière)",
        "type":"Zepapeur",
        "saison": "13",
        "dpt": "23"
    },
    {
        "nid": "1362",
        "lat": "46.23755",
        "lng": "1.48975",
        "nom": "Messire Zacquet prend la relève !",
        "terrain": "2",
        "difficulte": "3",
        "ville": "La Souterraine",
        "type":"Zacquet",
        "saison": "13",
        "dpt": "23"
    },
    {
        "nid": "41",
        "lat": "45.810051",
        "lng": "2.12116",
        "nom": "Mille-Pierres",
        "terrain": "2",
        "difficulte": "2",
        "ville": "Gioux",
        "type":"Zarthus",
        "saison": "4",
        "dpt": "23"
    },
    {
        "nid": "38",
        "lat": "45.86465",
        "lng": "2.15405",
        "nom": "Notre Dame de Sous-Terre veille",
        "terrain": "2",
        "difficulte": "3",
        "ville": "Saint-Quentin-la-Chabanne",
        "type":"Zarthus",
        "saison": "3",
        "dpt": "23"
    },
    {
        "nid": "976",
        "lat": "46.2891833",
        "lng": "1.6097",
        "nom": "N’est pas tétarot qui veut",
        "terrain": "4",
        "difficulte": "3",
        "ville": "Colondannes",
        "type":"Zarthus",
        "saison": "12",
        "dpt": "23"
    },
    {
        "nid": "1365",
        "lat": "45.9814833",
        "lng": "2.2935167",
        "nom": "Oh, la belle garde !",
        "terrain": "3",
        "difficulte": "2",
        "ville": "Bellegarde-en-Marche",
        "type":"Zelle",
        "saison": "13",
        "dpt": "23"
    },
    {
        "nid": "79",
        "lat": "45.784733802305",
        "lng": "1.9950914382935",
        "nom": "Sur les traces des tailleurs de pierre",
        "terrain": "4",
        "difficulte": "3",
        "ville": "Gentioux-Pigerolles",
        "type":"Zouti",
        "saison": "1",
        "dpt": "23"
    },
    {
        "nid": "978",
        "lat": "46.30455",
        "lng": "1.66265",
        "nom": "Un pour tous, tous pour Dun !",
        "terrain": "2",
        "difficulte": "2",
        "ville": "Dun-le-Palestel",
        "type":"Zechopp",
        "saison": "12",
        "dpt": "23"
    },
    {
        "nid": "1932",
        "lat": "46.12685",
        "lng": "1.864133",
        "nom": "Oooù est le loup de Chabrières ?",
        "terrain": "4",
        "difficulte": "3",
        "ville": "Forêt domaniale de Chabrières",
        "type":"Zahan",
        "saison": "13",
        "dpt": "23"
    },
    {
        "nid": "639",
        "lat": "45.8982",
        "lng": "2.44935",
        "nom": "Quand le bâtiment va, tout va !",
        "terrain": "2",
        "difficulte": "2",
        "ville": "Le Montaurat (Mérinchal)",
        "type":"Zouti",
        "saison": "10",
        "dpt": "23"
    },
    {
        "nid": "1364",
        "lat": "46.3013833",
        "lng": "2.0199333",
        "nom": "Qui vouivra verra !",
        "terrain": "3",
        "difficulte": "4",
        "ville": "Châtelus-Malvaleix",
        "type":"Zenight",
        "saison": "13",
        "dpt": "23"
    },
    {
        "nid": "1369",
        "lat": "46.3829",
        "lng": "1.6817",
        "nom": "S.O.S : Monet, peintre en détresse !",
        "terrain": "4",
        "difficulte": "3",
        "ville": "Fresselines",
        "type":"Zeidon",
        "saison": "13",
        "dpt": "23"
    },
    {
        "nid": "2694",
        "lat": "45.83715",
        "lng": "2.2651",
        "nom": "Sa majesté Granit",
        "terrain": "4",
        "difficulte": "3",
        "ville": "Saint-Georges Nigremont",
        "type":"Zinzin",
        "saison": "15",
        "dpt": "23"
    },
    {
        "nid": "1367",
        "lat": "46.1686667",
        "lng": "1.8705",
        "nom": "Signé Le Cha.",
        "terrain": "1",
        "difficulte": "2",
        "ville": "Guéret",
        "type":"Zabeth",
        "saison": "13",
        "dpt": "23"
    },
    {
        "nid": "189",
        "lat": "46.1805",
        "lng": "2.3282667",
        "nom": "Tous à l’affût !",
        "terrain": "1",
        "difficulte": "2",
        "ville": "Lussat",
        "type":"Zecolo",
        "saison": "7",
        "dpt": "23"
    },
    {
        "nid": "1361",
        "lat": "45.9541",
        "lng": "1.7561",
        "nom": "Zinzin, petit prince adoré",
        "terrain": "4",
        "difficulte": "4",
        "ville": "Bourganeuf",
        "type":"Zinzin",
        "saison": "13",
        "dpt": "23"
    },
    {
        "nid": "972",
        "lat": "46.3897667",
        "lng": "1.6216167",
        "nom": "Zart met le Boz'art dans la vallée !",
        "terrain": "2",
        "difficulte": "2",
        "ville": "Crozant",
        "type":"Zart",
        "saison": "12",
        "dpt": "23"
    },
    {
        "nid": "759",
        "lat": "45.8683833",
        "lng": "2.3671667",
        "nom": "Cracquez pour le Creusois",
        "terrain": "2",
        "difficulte": "3",
        "ville": "Crocq",
        "type":"Zeroïk",
        "saison": "11",
        "dpt": "23"
    },
    {
        "nid": "383",
        "lat": "45.2555",
        "lng": "0.4968833",
        "nom": "Balade en Tocane",
        "terrain": "1",
        "difficulte": "1",
        "ville": "Tocane Saint Apre ",
        "type":"Zabeth",
        "saison": "8",
        "dpt": "24"
    },
    {
        "nid": "625",
        "lat": "45.2593333",
        "lng": "1.1493",
        "nom": "Altus & Fortiche",
        "terrain": "1",
        "difficulte": "1",
        "ville": "Hautefort",
        "type":"Zart",
        "saison": "10",
        "dpt": "24"
    },
    {
        "nid": "224",
        "lat": "44.7688",
        "lng": "0.7674",
        "nom": "Beaumont du Périgord, entre carreyrous et carreras  ",
        "terrain": "2",
        "difficulte": "2",
        "ville": "Beaumont-du-Périgord",
        "type":"Zeroïk",
        "saison": "7",
        "dpt": "24"
    },
    {
        "nid": "960",
        "lat": "44.8502667",
        "lng": "0.4833",
        "nom": "Bergerac : c’est un pic, c’est un cap !",
        "terrain": "2",
        "difficulte": "2",
        "ville": "Bergerac",
        "type":"Zetoulu",
        "saison": "12",
        "dpt": "24"
    },
    {
        "nid": "980",
        "lat": "45.322",
        "lng": "0.5882167",
        "nom": "Bourdeilles, nul ne vaincra...",
        "terrain": "2",
        "difficulte": "3",
        "ville": "Bourdeilles",
        "type":"Zeroïk",
        "saison": "12",
        "dpt": "24"
    },
    {
        "nid": "712",
        "lat": "45.3609833",
        "lng": "0.6478333",
        "nom": "Brantôme, Venise du Périgord",
        "terrain": "2",
        "difficulte": "2",
        "ville": "Brantôme-en-Périgord",
        "type":"Zeidon",
        "saison": "11",
        "dpt": "24"
    },
    {
        "nid": "328",
        "lat": "44.8121667",
        "lng": "0.8707833",
        "nom": "Cadouin par un pèlerin",
        "terrain": "1",
        "difficulte": "2",
        "ville": "Cadouin",
        "type":"Zacquet",
        "saison": "8",
        "dpt": "24"
    },
    {
        "nid": "2106",
        "lat": "45.3062833",
        "lng": "0.9831167",
        "nom": "Coiffé au « pot au lait » !",
        "terrain": "3",
        "difficulte": "3",
        "ville": "Coulaures",
        "type":"Ziclou",
        "saison": "14",
        "dpt": "24"
    },
    {
        "nid": "554",
        "lat": "45.2479833",
        "lng": "0.3381833",
        "nom": "Ribérac, la contemporaine",
        "terrain": "2",
        "difficulte": "2",
        "ville": "Ribérac",
        "type":"Zart",
        "saison": "9",
        "dpt": "24"
    },
    {
        "nid": "338",
        "lat": "45.3679833",
        "lng": "1.2138667",
        "nom": "C’est en forgeant...",
        "terrain": "1",
        "difficulte": "1",
        "ville": "Savignac-Lédrier",
        "type":"Zouti",
        "saison": "8",
        "dpt": "24"
    },
    {
        "nid": "771",
        "lat": "44.74245",
        "lng": "1.1951167",
        "nom": "Daglan, capitale...",
        "terrain": "1",
        "difficulte": "2",
        "ville": "Daglan",
        "type":"Zouti",
        "saison": "11",
        "dpt": "24"
    },
    {
        "nid": "339",
        "lat": "44.9605167",
        "lng": "1.29825",
        "nom": "De Saint-Crépin à Carlucet, pépites du Périgord Noir ",
        "terrain": "3",
        "difficulte": "3",
        "ville": "Saint-Crépin-et-Carlucet",
        "type":"Zarthus",
        "saison": "8",
        "dpt": "24"
    },
    {
        "nid": "337",
        "lat": "45.3075",
        "lng": "1.0752333",
        "nom": "Sent Rafeu Code",
        "terrain": "3",
        "difficulte": "3",
        "ville": "Saint-Raphaël",
        "type":"Zenight",
        "saison": "8",
        "dpt": "24"
    },
    {
        "nid": "716",
        "lat": "45.5501",
        "lng": "0.9044",
        "nom": "Deux z’heures de Côle avec Ziclou",
        "terrain": "3",
        "difficulte": "3",
        "ville": "Miallet",
        "type":"Ziclou",
        "saison": "11",
        "dpt": "24"
    },
    {
        "nid": "333",
        "lat": "44.8006167",
        "lng": "1.2218",
        "nom": "Domme, quelle histoire ! ",
        "terrain": "2",
        "difficulte": "3",
        "ville": "Domme",
        "type":"Zeroïk",
        "saison": "8",
        "dpt": "24"
    },
    {
        "nid": "630",
        "lat": "45.1311333",
        "lng": "0.2649",
        "nom": "Les Doublauds font la paire",
        "terrain": "2",
        "difficulte": "2",
        "ville": "Echourgnac / Ferme du Parcot",
        "type":"Zouti",
        "saison": "10",
        "dpt": "24"
    },
    {
        "nid": "668",
        "lat": "44.91965",
        "lng": "0.0565167",
        "nom": "Essaie de monter, pour voir !",
        "terrain": "3",
        "difficulte": "3",
        "ville": "Montpeyroux",
        "type":"Zarthus",
        "saison": "11",
        "dpt": "24"
    },
    {
        "nid": "335",
        "lat": "44.667",
        "lng": "0.3961833",
        "nom": "Secrets d'Eymet",
        "terrain": "1",
        "difficulte": "2",
        "ville": "Eymet",
        "type":"Zabeth",
        "saison": "8",
        "dpt": "24"
    },
    {
        "nid": "1944",
        "lat": "45.1840167",
        "lng": "0.7227333",
        "nom": "Faut qu’on suive le pèlerin…",
        "terrain": "2",
        "difficulte": "3",
        "ville": "Périgueux",
        "type":"Zahan",
        "saison": "14",
        "dpt": "24"
    },
    {
        "nid": "435",
        "lat": "45.4932",
        "lng": "1.0607333",
        "nom": "Filez, pauvres fous !",
        "terrain": "3",
        "difficulte": "3",
        "ville": "Jumilhac-le-Grand",
        "type":"Zelle",
        "saison": "9",
        "dpt": "24"
    },
    {
        "nid": "336",
        "lat": "45.2033167",
        "lng": "0.1358",
        "nom": "Suivez le Goupil !",
        "terrain": "2",
        "difficulte": "1",
        "ville": "Saint-Aulaye",
        "type":"Zeroïk",
        "saison": "8",
        "dpt": "24"
    },
    {
        "nid": "248",
        "lat": "44.8800667",
        "lng": "0.9471833",
        "nom": "Géometrix à Audrix",
        "terrain": "3",
        "difficulte": "3",
        "ville": "Audrix",
        "type":"Zarthus",
        "saison": "7",
        "dpt": "24"
    },
    {
        "nid": "984",
        "lat": "45.0833167",
        "lng": "0.5395167",
        "nom": "Grignols, only Diou !",
        "terrain": "3",
        "difficulte": "2",
        "ville": "Grignols",
        "type":"Zeroïk",
        "saison": "12",
        "dpt": "24"
    },
    {
        "nid": "437",
        "lat": "45.4143",
        "lng": "0.9204167",
        "nom": "Une cloche sonne, sonne…",
        "terrain": "1",
        "difficulte": "1",
        "ville": "Thiviers",
        "type":"Zouti",
        "saison": "9",
        "dpt": "24"
    },
    {
        "nid": "494",
        "lat": "45.6221833",
        "lng": "0.6891",
        "nom": "Qui n’a pas vu Piégut, n’a pas vu de marché",
        "terrain": "3",
        "difficulte": "2",
        "ville": "Piégut-Pluviers",
        "type":"Zechopp",
        "saison": "9",
        "dpt": "24"
    },
    {
        "nid": "254",
        "lat": "45.5566333",
        "lng": "1.0052833",
        "nom": "Un avant-goût du PNR Périgord-Limousin",
        "terrain": "2",
        "difficulte": "3",
        "ville": "La Coquille",
        "type":"Zecolo",
        "saison": "7",
        "dpt": "24"
    },
    {
        "nid": "340",
        "lat": "45.4198667",
        "lng": "0.8407333",
        "nom": "Jean-Colois d’un jour ",
        "terrain": "1",
        "difficulte": "1",
        "ville": "Saint-Jean-de-Côle",
        "type":"Zeroïk",
        "saison": "8",
        "dpt": "24"
    },
    {
        "nid": "770",
        "lat": "45.2706167",
        "lng": "1.0614333",
        "nom": "Le Roi des Mapuches",
        "terrain": "3",
        "difficulte": "2",
        "ville": "Tourtoirac",
        "type":"Zinzin",
        "saison": "11",
        "dpt": "24"
    },
    {
        "nid": "434",
        "lat": "44.7308",
        "lng": "0.6064333",
        "nom": "La commande du Monsieur d’Issigeac",
        "terrain": "1",
        "difficulte": "2",
        "ville": "Issigeac",
        "type":"Zouti",
        "saison": "9",
        "dpt": "24"
    },
    {
        "nid": "500",
        "lat": "45.3345167",
        "lng": "1.0487333",
        "nom": "Le grand Trouveur d’Excideuil",
        "terrain": "2",
        "difficulte": "3",
        "ville": "Excideuil",
        "type":"Zetoulu",
        "saison": "9",
        "dpt": "24"
    },
    {
        "nid": "436",
        "lat": "44.8354333",
        "lng": "0.7383833",
        "nom": "Le monstre des « malpas »",
        "terrain": "1",
        "difficulte": "2",
        "ville": "Lalinde",
        "type":"Zeidon",
        "saison": "9",
        "dpt": "24"
    },
    {
        "nid": "492",
        "lat": "45.1379833",
        "lng": "0.0058167",
        "nom": "Le petit bois de l’opéra",
        "terrain": "2",
        "difficulte": "2",
        "ville": "La Roche-Chalais",
        "type":"Zouch",
        "saison": "9",
        "dpt": "24"
    },
    {
        "nid": "627",
        "lat": "45.5276",
        "lng": "0.6604333",
        "nom": "Les fines lames du Périgord",
        "terrain": "4",
        "difficulte": "2",
        "ville": "Nontron",
        "type":"Zart",
        "saison": "10",
        "dpt": "24"
    },
    {
        "nid": "1569",
        "lat": "45.0296",
        "lng": "0.2254",
        "nom": "L’affaire Duellas",
        "terrain": "2",
        "difficulte": "2",
        "ville": "Saint-Martial-d'Artenset",
        "type":"Zeidon",
        "saison": "13",
        "dpt": "24"
    },
    {
        "nid": "332",
        "lat": "44.7958333",
        "lng": "0.9725833",
        "nom": "L’épée de Zigomatix ",
        "terrain": "3",
        "difficulte": "2",
        "ville": "Belvès",
        "type":"Zigomatix",
        "saison": "8",
        "dpt": "24"
    },
    {
        "nid": "476",
        "lat": "45.3557167",
        "lng": "1.1994",
        "nom": "Maximini sensations",
        "terrain": "5",
        "difficulte": "3",
        "ville": "Saint-Mesmin",
        "type":"Zepapeur",
        "saison": "9",
        "dpt": "24"
    },
    {
        "nid": "553",
        "lat": "44.8689167",
        "lng": "1.0459",
        "nom": "Monte là-dessus, tu verras Montmartre ! ",
        "terrain": "3",
        "difficulte": "2",
        "ville": "Saint-Cyprien",
        "type":"Zabeth",
        "saison": "9",
        "dpt": "24"
    },
    {
        "nid": "249",
        "lat": "45.06775",
        "lng": "1.1647",
        "nom": "Montignac, une histoire de ponts ! ",
        "terrain": "1",
        "difficulte": "3",
        "ville": "Montignac",
        "type":"Zechopp",
        "saison": "7",
        "dpt": "24"
    },
    {
        "nid": "363",
        "lat": "44.99395",
        "lng": "1.0595333",
        "nom": "Voyage dans le Moustérien ",
        "terrain": "1",
        "difficulte": "2",
        "ville": "Peyzac-le-Moustier",
        "type":"Zeidon",
        "saison": "8",
        "dpt": "24"
    },
    {
        "nid": "772",
        "lat": "44.9070833",
        "lng": "0.97415",
        "nom": "Un mystère qui ne manque pas de piquant !",
        "terrain": "2",
        "difficulte": "2",
        "ville": "Campagne",
        "type":"Zecolo",
        "saison": "11",
        "dpt": "24"
    },
    {
        "nid": "874",
        "lat": "45.3213333",
        "lng": "1.2244167",
        "nom": "Para' siempre !",
        "terrain": "2",
        "difficulte": "3",
        "ville": "Cité de Clairvivre (Salagnac / Saint-Mesmin)",
        "type":"Zonelib",
        "saison": "11",
        "dpt": "24"
    },
    {
        "nid": "303",
        "lat": "44.69825",
        "lng": "0.4794667",
        "nom": "Petits problèmes de vinification",
        "terrain": "2",
        "difficulte": "3",
        "ville": "Saint-Aubin-de-Cadelech",
        "type":"Zalambic",
        "saison": "8",
        "dpt": "24"
    },
    {
        "nid": "491",
        "lat": "44.9410333",
        "lng": "0.4414667",
        "nom": "Retour aux sources",
        "terrain": "2",
        "difficulte": "2",
        "ville": "Laveyssière",
        "type":"Zeidon",
        "saison": "9",
        "dpt": "24"
    },
    {
        "nid": "2718",
        "lat": "45.1848",
        "lng": "0.7201333",
        "nom": "Savoureux Périgueux !",
        "terrain": "2",
        "difficulte": "3",
        "ville": "Périgueux",
        "type":"Zéfaim",
        "saison": "15",
        "dpt": "24"
    },
    {
        "nid": "1566",
        "lat": "44.7756333",
        "lng": "0.8169167",
        "nom": "Spirituelle randonnée",
        "terrain": "2",
        "difficulte": "2",
        "ville": "Saint-Avit-Sénieur",
        "type":"Zabeth",
        "saison": "13",
        "dpt": "24"
    },
    {
        "nid": "982",
        "lat": "45.58475",
        "lng": "0.7578167",
        "nom": "Zellé, mesfia-té...",
        "terrain": "4",
        "difficulte": "4",
        "ville": "Abjat-sur-Bandiat",
        "type":"Zelle",
        "saison": "12",
        "dpt": "24"
    },
    {
        "nid": "484",
        "lat": "45.1293333",
        "lng": "1.3042167",
        "nom": "Tèrra sunt, ou l’or de Sorus",
        "terrain": "3",
        "difficulte": "2",
        "ville": "Terrasson-Lavilledieu",
        "type":"Zelle",
        "saison": "9",
        "dpt": "24"
    },
    {
        "nid": "626",
        "lat": "45.2261333",
        "lng": "0.9848167",
        "nom": "Une offre canon !",
        "terrain": "2",
        "difficulte": "2",
        "ville": "La Forge d'Ans (La Boissière-d'Ans)",
        "type":"Zisséo",
        "saison": "10",
        "dpt": "24"
    },
    {
        "nid": "2118",
        "lat": "44.6307167",
        "lng": "1.0756333",
        "nom": "Tout est bon dans l'marron !",
        "terrain": "2",
        "difficulte": "2",
        "ville": "Villefranche-du-Périgord",
        "type":"Zouch",
        "saison": "14",
        "dpt": "24"
    },
    {
        "nid": "475",
        "lat": "45.1802167",
        "lng": "0.7122667",
        "nom": "Vésone et le dragon",
        "terrain": "1",
        "difficulte": "2",
        "ville": "Périgueux",
        "type":"Zigomatix",
        "saison": "9",
        "dpt": "24"
    },
    {
        "nid": "631",
        "lat": "44.6801667",
        "lng": "0.8943667",
        "nom": "Zéchopp, l’escroc qui vous croque",
        "terrain": "1",
        "difficulte": "2",
        "ville": "Monpazier",
        "type":"Zechopp",
        "saison": "10",
        "dpt": "24"
    },
    {
        "nid": "552",
        "lat": "45.4533",
        "lng": "0.4508333",
        "nom": "Zekid, prince des voleurs",
        "terrain": "2",
        "difficulte": "2",
        "ville": "Mareuil-en-Périgord",
        "type":"Zetoulu",
        "saison": "9",
        "dpt": "24"
    },
    {
        "nid": "773",
        "lat": "45.12665",
        "lng": "0.22635",
        "nom": "‘Trappe-moi si tu peux !",
        "terrain": "2",
        "difficulte": "3",
        "ville": "Echourgnac",
        "type":"Zarthus",
        "saison": "11",
        "dpt": "24"
    },
    {
        "nid": "334",
        "lat": "45.3653833",
        "lng": "0.446",
        "nom": "Au four et au moulin !",
        "terrain": "2",
        "difficulte": "2",
        "ville": "La Tour blanche",
        "type":"Zouti",
        "saison": "8",
        "dpt": "24"
    },
    {
        "nid": "459",
        "lat": "44.9326167",
        "lng": "-0.43805",
        "nom": "À Cavernes, hop ! Hop ! Hop ! ",
        "terrain": "1",
        "difficulte": "1",
        "ville": "Saint-Loubès",
        "type":"Zisséo",
        "saison": "9",
        "dpt": "33"
    },
    {
        "nid": "507",
        "lat": "44.7433667",
        "lng": "-1.0989",
        "nom": "Villas et cabanes en fête !",
        "terrain": "1",
        "difficulte": "2",
        "ville": "Andernos-les-Bains",
        "type":"Zouti",
        "saison": "9",
        "dpt": "33"
    },
    {
        "nid": "516",
        "lat": "45.0392833",
        "lng": "-0.1862167",
        "nom": "Un drakkar sur mon Isle",
        "terrain": "2",
        "difficulte": "2",
        "ville": "Guîtres",
        "type":"Zeidon",
        "saison": "9",
        "dpt": "33"
    },
    {
        "nid": "1392",
        "lat": "45.6185167",
        "lng": "-1.0315333",
        "nom": "Cordouan en v.u.e !",
        "terrain": "2",
        "difficulte": "3",
        "ville": "Royan (17) / Le Verdon-sur-Mer",
        "type":"Zisséo",
        "saison": "13",
        "dpt": "33"
    },
    {
        "nid": "316",
        "lat": "44.6802833",
        "lng": "-0.0115",
        "nom": "Aux quatre cents coups",
        "terrain": "2",
        "difficulte": "2",
        "ville": "Castelmoron-d'Albret",
        "type":"Zeroïk",
        "saison": "8",
        "dpt": "33"
    },
    {
        "nid": "496",
        "lat": "45.1391833",
        "lng": "-0.442",
        "nom": "Echappée belle en Pays Gabaye",
        "terrain": "1",
        "difficulte": "1",
        "ville": "Saint-Savin",
        "type":"Zabeth",
        "saison": "9",
        "dpt": "33"
    },
    {
        "nid": "457",
        "lat": "44.6048667",
        "lng": "-0.9426333",
        "nom": "De l’Amazonie dans l’Eyre",
        "terrain": "3",
        "difficulte": "3",
        "ville": "Mios",
        "type":"Zouch",
        "saison": "9",
        "dpt": "33"
    },
    {
        "nid": "304",
        "lat": "45.0402667",
        "lng": "-0.55555",
        "nom": "À vôs chais en Côtes de Bourg",
        "terrain": "3",
        "difficulte": "2",
        "ville": "Bourg",
        "type":"Zalambic",
        "saison": "8",
        "dpt": "33"
    },
    {
        "nid": "1938",
        "lat": "44.635967",
        "lng": "-1.021633",
        "nom": "Alerte à la réserve !",
        "terrain": "1",
        "difficulte": "2",
        "ville": "Le Teich",
        "type":"Zahan",
        "saison": "14",
        "dpt": "33"
    },
    {
        "nid": "326",
        "lat": "44.8780333",
        "lng": "-0.5342",
        "nom": "Dans le même bateau",
        "terrain": "4",
        "difficulte": "2",
        "ville": "Lormont",
        "type":"Zeidon",
        "saison": "8",
        "dpt": "33"
    },
    {
        "nid": "317",
        "lat": "45.1952",
        "lng": "-0.7441333",
        "nom": "Angélique, belle de l’estuaire",
        "terrain": "2",
        "difficulte": "3",
        "ville": "Pauillac",
        "type":"Zelle",
        "saison": "8",
        "dpt": "33"
    },
    {
        "nid": "448",
        "lat": "45.2504833",
        "lng": "-0.8345167",
        "nom": "Au nom de la rose",
        "terrain": "2",
        "difficulte": "2",
        "ville": "Vertheuil",
        "type":"Zeroïk",
        "saison": "9",
        "dpt": "33"
    },
    {
        "nid": "2580",
        "lat": "44.8595333",
        "lng": "-0.5539833",
        "nom": "Bacalan, au pays des possibles",
        "terrain": "1",
        "difficulte": "2",
        "ville": "Bordeaux - Quartier des Bassins à Flot",
        "type":"Zart",
        "saison": "15",
        "dpt": "33"
    },
    {
        "nid": "766",
        "lat": "44.7274167",
        "lng": "-0.5972833",
        "nom": "Cap ou pacane ?",
        "terrain": "2",
        "difficulte": "3",
        "ville": "Léognan",
        "type":"Zouti",
        "saison": "11",
        "dpt": "33"
    },
    {
        "nid": "662",
        "lat": "44.8529667",
        "lng": "-0.03825",
        "nom": "Castillon : la bataille navale !",
        "terrain": "2",
        "difficulte": "1",
        "ville": "Castillon-la-Bataille",
        "type":"Zeidon",
        "saison": "10",
        "dpt": "33"
    },
    {
        "nid": "1791",
        "lat": "44.7536833",
        "lng": "-0.0745833",
        "nom": "Chapeau l'abbé Hoarau !",
        "terrain": "2",
        "difficulte": "3",
        "ville": "Blasimon",
        "type":"Zarthus",
        "saison": "13",
        "dpt": "33"
    },
    {
        "nid": "325",
        "lat": "45.2846667",
        "lng": "-0.6982333",
        "nom": "L'envol de Coco Martin",
        "terrain": "1",
        "difficulte": "2",
        "ville": "Braud-et-Saint-Louis",
        "type":"Zahan",
        "saison": "8",
        "dpt": "33"
    },
    {
        "nid": "323",
        "lat": "44.6437667",
        "lng": "-0.9985833",
        "nom": "Des couleurs pour ma cayenne",
        "terrain": "1",
        "difficulte": "1",
        "ville": "Biganos",
        "type":"Zart",
        "saison": "8",
        "dpt": "33"
    },
    {
        "nid": "1941",
        "lat": "44.767883",
        "lng": "-1.13175",
        "nom": "Court-circuit dans ta street",
        "terrain": "1",
        "difficulte": "2",
        "ville": "Arès",
        "type":"Zegraff",
        "saison": "14",
        "dpt": "33"
    },
    {
        "nid": "765",
        "lat": "44.7764333",
        "lng": "-0.349",
        "nom": "Créons, c’est l’heure !",
        "terrain": "2",
        "difficulte": "3",
        "ville": "Créon / La Sauve Majeure",
        "type":"Ziclou",
        "saison": "11",
        "dpt": "33"
    },
    {
        "nid": "1264",
        "lat": "44.7809333",
        "lng": "-0.4058833",
        "nom": "Cruche un jour, cruche toujours !",
        "terrain": "3",
        "difficulte": "3",
        "ville": "Sadirac",
        "type":"Zinzin",
        "saison": "12",
        "dpt": "33"
    },
    {
        "nid": "762",
        "lat": "44.84635",
        "lng": "-0.5284167",
        "nom": "Cyprès du but...",
        "terrain": "3",
        "difficulte": "3",
        "ville": "Cenon",
        "type":"Zouch",
        "saison": "11",
        "dpt": "33"
    },
    {
        "nid": "320",
        "lat": "44.9109",
        "lng": "-0.2416333",
        "nom": "De l'or sur les z'étals",
        "terrain": "1",
        "difficulte": "2",
        "ville": "Libourne",
        "type":"Zechopp",
        "saison": "8",
        "dpt": "33"
    },
    {
        "nid": "318",
        "lat": "44.7646833",
        "lng": "-1.1416",
        "nom": "L’Ovnicache",
        "terrain": "1",
        "difficulte": "1",
        "ville": "Arès",
        "type":"Zarthus",
        "saison": "8",
        "dpt": "33"
    },
    {
        "nid": "462",
        "lat": "44.7653",
        "lng": "-0.61935",
        "nom": "Prieur de ne pas déranger",
        "terrain": "1",
        "difficulte": "2",
        "ville": "Gradignan",
        "type":"Zacquet",
        "saison": "9",
        "dpt": "33"
    },
    {
        "nid": "606",
        "lat": "44.5800333",
        "lng": "-0.0406",
        "nom": "Où est Charlut ?",
        "terrain": "3",
        "difficulte": "3",
        "ville": "La Réole",
        "type":"Zart",
        "saison": "10",
        "dpt": "33"
    },
    {
        "nid": "605",
        "lat": "44.5655",
        "lng": "-0.2263833",
        "nom": "Le Mercadiou tourne en barrique !",
        "terrain": "2",
        "difficulte": "3",
        "ville": "Saint-Macaire",
        "type":"Zechopp",
        "saison": "10",
        "dpt": "33"
    },
    {
        "nid": "319",
        "lat": "44.6396333",
        "lng": "-1.0754333",
        "nom": "Un Poï’z à la mer",
        "terrain": "1",
        "difficulte": "2",
        "ville": "Gujan-Mestras",
        "type":"Zisséo",
        "saison": "8",
        "dpt": "33"
    },
    {
        "nid": "1488",
        "lat": "44.8903833",
        "lng": "-0.7000833",
        "nom": "Escal’ en Jall’",
        "terrain": "2",
        "difficulte": "3",
        "ville": "Saint-Médard-en-Jalles",
        "type":"Zarthus",
        "saison": "13",
        "dpt": "33"
    },
    {
        "nid": "767",
        "lat": "45.0168333",
        "lng": "-0.0039833",
        "nom": "Faites un saut chez nous",
        "terrain": "2",
        "difficulte": "3",
        "ville": "Saint-Seurin-sur-l'Isle / Porchères",
        "type":"Zouti",
        "saison": "11",
        "dpt": "33"
    },
    {
        "nid": "517",
        "lat": "45.5142333",
        "lng": "-1.1235167",
        "nom": "Jusqu'à la Fin-des-Terres",
        "terrain": "1",
        "difficulte": "2",
        "ville": "Soulac-sur-Mer",
        "type":"Zinzin",
        "saison": "9",
        "dpt": "33"
    },
    {
        "nid": "664",
        "lat": "44.6541167",
        "lng": "0.0789167",
        "nom": "Fortune compte pas pour des prunes ! ",
        "terrain": "3",
        "difficulte": "3",
        "ville": "Monségur",
        "type":"Zechopp",
        "saison": "10",
        "dpt": "33"
    },
    {
        "nid": "763",
        "lat": "44.8305333",
        "lng": "-0.5275",
        "nom": "La tête dans les z’étoiles",
        "terrain": "4",
        "difficulte": "3",
        "ville": "Floirac",
        "type":"Zarthus",
        "saison": "11",
        "dpt": "33"
    },
    {
        "nid": "2676",
        "lat": "44.5310167",
        "lng": "-0.34255",
        "nom": "Quelques rayons de miel et de Sauternes...",
        "terrain": "2",
        "difficulte": "2",
        "ville": "Sauternes",
        "type":"Zarthus",
        "saison": "15",
        "dpt": "33"
    },
    {
        "nid": "764",
        "lat": "44.5071833",
        "lng": "-0.7982333",
        "nom": "Rendez-vous en « tèrra » inconnue",
        "terrain": "3",
        "difficulte": "3",
        "ville": "Belin-Beliet",
        "type":"Zecolo",
        "saison": "11",
        "dpt": "33"
    },
    {
        "nid": "670",
        "lat": "44.82168",
        "lng": "-0.70743",
        "nom": "Jouez à l'espace game !",
        "terrain": "0",
        "difficulte": "5",
        "ville": null,
        "type":"Légendaire",
        "saison": "10",
        "dpt": "33"
    },
    {
        "nid": "950",
        "lat": "44.8033333",
        "lng": "-0.6874333",
        "nom": "Le Bourgailh, forêt presqu’enchantée...",
        "terrain": "3",
        "difficulte": "3",
        "ville": "Pessac / Forêt du Bourgailh",
        "type":"Zahan",
        "saison": "12",
        "dpt": "33"
    },
    {
        "nid": "456",
        "lat": "44.5503667",
        "lng": "-0.8685167",
        "nom": "Le marathon de l’échasse",
        "terrain": "2",
        "difficulte": "3",
        "ville": "Salles",
        "type":"Zabeth",
        "saison": "9",
        "dpt": "33"
    },
    {
        "nid": "515",
        "lat": "44.8432833",
        "lng": "0.2208667",
        "nom": "Les Sires de bonne Foy",
        "terrain": "1",
        "difficulte": "2",
        "ville": "Sainte Foy la Grande",
        "type":"Zeroïk",
        "saison": "9",
        "dpt": "33"
    },
    {
        "nid": "447",
        "lat": "44.6926333",
        "lng": "-0.08625",
        "nom": "Lou qui a pas passat…",
        "terrain": "1",
        "difficulte": "2",
        "ville": "Sauveterre-de-Guyenne",
        "type":"Zouti",
        "saison": "9",
        "dpt": "33"
    },
    {
        "nid": "1386",
        "lat": "44.8922333",
        "lng": "-0.1535333",
        "nom": "Mais que fait la Jurade ?!",
        "terrain": "4",
        "difficulte": "3",
        "ville": "Saint-Emilion",
        "type":"Zalambic",
        "saison": "13",
        "dpt": "33"
    },
    {
        "nid": "1545",
        "lat": "44.49635",
        "lng": "-0.1500333",
        "nom": "Mon coteau, c’est le plus beau !",
        "terrain": "3",
        "difficulte": "1",
        "ville": "Auros",
        "type":"Zecolo",
        "saison": "13",
        "dpt": "33"
    },
    {
        "nid": "1261",
        "lat": "44.6806167",
        "lng": "-0.5223833",
        "nom": "Qui a volé la plume de Montesquieu ?",
        "terrain": "1",
        "difficulte": "2",
        "ville": "La Brède",
        "type":"Zetoulu",
        "saison": "12",
        "dpt": "33"
    },
    {
        "nid": "2679",
        "lat": "45.0604667",
        "lng": "-0.7677",
        "nom": "Moulis : on va déguster !",
        "terrain": "1",
        "difficulte": "2",
        "ville": "Moulis-en-Médoc",
        "type":"Zalambic",
        "saison": "15",
        "dpt": "33"
    },
    {
        "nid": "761",
        "lat": "45.1804167",
        "lng": "-1.0861",
        "nom": "Oui, c’est un paradis !",
        "terrain": "1",
        "difficulte": "2",
        "ville": "Hourtin",
        "type":"Zeidon",
        "saison": "11",
        "dpt": "33"
    },
    {
        "nid": "321",
        "lat": "45.1010667",
        "lng": "-0.6465",
        "nom": "Sous les yeux de la bonne mer",
        "terrain": "3",
        "difficulte": "2",
        "ville": "Plassac",
        "type":"Zisséo",
        "saison": "8",
        "dpt": "33"
    },
    {
        "nid": "452",
        "lat": "44.8038",
        "lng": "0.0713667",
        "nom": "Pardaillan, chevalier maudit",
        "terrain": "1",
        "difficulte": "2",
        "ville": "Gensac",
        "type":"Zabeth",
        "saison": "9",
        "dpt": "33"
    },
    {
        "nid": "604",
        "lat": "44.4315667",
        "lng": "-0.2116667",
        "nom": "Plus d’un tour dans sa be’zas !",
        "terrain": "2",
        "difficulte": "2",
        "ville": "Bazas",
        "type":"Zacquet",
        "saison": "10",
        "dpt": "33"
    },
    {
        "nid": "611",
        "lat": "45.0403",
        "lng": "-0.1292333",
        "nom": "Reine d’un jour...",
        "terrain": "1",
        "difficulte": "1",
        "ville": "Coutras",
        "type":"Zabeth",
        "saison": "10",
        "dpt": "33"
    },
    {
        "nid": "1935",
        "lat": "45.07115",
        "lng": "-1.143267",
        "nom": "Ruée vers l’or des bois !",
        "terrain": "3",
        "difficulte": "2",
        "ville": "Carcans-Maubuisson",
        "type":"Zouch",
        "saison": "14",
        "dpt": "33"
    },
    {
        "nid": "686",
        "lat": "44.5935667",
        "lng": "-0.2829",
        "nom": "Sainte et Croix font huître",
        "terrain": "3",
        "difficulte": "3",
        "ville": "Sainte-Croix-du-Mont",
        "type":"Zectonic",
        "saison": "11",
        "dpt": "33"
    },
    {
        "nid": "565",
        "lat": "44.6480167",
        "lng": "-1.1526",
        "nom": "Sauvons les prés salés !",
        "terrain": "1",
        "difficulte": "2",
        "ville": "La Teste de Buch",
        "type":"Zecolo",
        "saison": "11",
        "dpt": "33"
    },
    {
        "nid": "1473",
        "lat": "44.8842167",
        "lng": "-0.6494833",
        "nom": "Zéfaim garde la patate !",
        "terrain": "2",
        "difficulte": "1",
        "ville": "Eysines",
        "type":"Zéfaim",
        "saison": "13",
        "dpt": "33"
    },
    {
        "nid": "610",
        "lat": "45.00175",
        "lng": "-1.1944",
        "nom": "Ziclou des rails à Lacanau",
        "terrain": "3",
        "difficulte": "3",
        "ville": "Lacanau Océan",
        "type":"Ziclou",
        "saison": "10",
        "dpt": "33"
    },
    {
        "nid": "289",
        "lat": "43.8916",
        "lng": "-0.5019333",
        "nom": "Les z’arts au soleil",
        "terrain": "2",
        "difficulte": "2",
        "ville": "Mont-de-Marsan",
        "type":"Zart",
        "saison": "8",
        "dpt": "40"
    },
    {
        "nid": "754",
        "lat": "43.6299667",
        "lng": "-1.2264667",
        "nom": "3, 2, 1… Barthais !",
        "terrain": "2",
        "difficulte": "3",
        "ville": "Josse / Saint-Geours-de-Maremne / Saubusse",
        "type":"Ziclou",
        "saison": "11",
        "dpt": "40"
    },
    {
        "nid": "438",
        "lat": "44.23565",
        "lng": "-1.0714",
        "nom": "Frère Zacqu’, dormez-vous ?",
        "terrain": "2",
        "difficulte": "1",
        "ville": "Bouricos / Pontenx-les-Forges",
        "type":"Zacquet",
        "saison": "9",
        "dpt": "40"
    },
    {
        "nid": "910",
        "lat": "43.7606667",
        "lng": "-0.3168833",
        "nom": "Attention à la marche...",
        "terrain": "2",
        "difficulte": "3",
        "ville": "Cazères-sur-l’Adour",
        "type":"Zeidon",
        "saison": "12",
        "dpt": "40"
    },
    {
        "nid": "291",
        "lat": "43.7547",
        "lng": "-1.3306",
        "nom": "Allez les petits !",
        "terrain": "2",
        "difficulte": "3",
        "ville": "Soustons",
        "type":"Zabdo",
        "saison": "8",
        "dpt": "40"
    },
    {
        "nid": "449",
        "lat": "43.5918333",
        "lng": "-0.7473333",
        "nom": "Dis-moi des mots d’Amou",
        "terrain": "2",
        "difficulte": "2",
        "ville": "Amou",
        "type":"Zelle",
        "saison": "9",
        "dpt": "40"
    },
    {
        "nid": "584",
        "lat": "43.65315",
        "lng": "-0.5919833",
        "nom": "Qui ne saute pas n’est pas Landais !",
        "terrain": "2",
        "difficulte": "3",
        "ville": "Hagetmau",
        "type":"Zabdo",
        "saison": "10",
        "dpt": "40"
    },
    {
        "nid": "600",
        "lat": "43.7493167",
        "lng": "-0.7456",
        "nom": "Aux vendanges, les p’tits bouchons !",
        "terrain": "2",
        "difficulte": "3",
        "ville": "Mugron",
        "type":"Zalambic",
        "saison": "10",
        "dpt": "40"
    },
    {
        "nid": "756",
        "lat": "43.83015",
        "lng": "-0.8131833",
        "nom": "Faites chauffer la colle !",
        "terrain": "3",
        "difficulte": "3",
        "ville": "Tartas",
        "type":"Zechopp",
        "saison": "11",
        "dpt": "40"
    },
    {
        "nid": "752",
        "lat": "44.3868833",
        "lng": "-1.1813333",
        "nom": "Bisca’ donne des z’ailes",
        "terrain": "2",
        "difficulte": "3",
        "ville": "Biscarrosse",
        "type":"Zouti",
        "saison": "11",
        "dpt": "40"
    },
    {
        "nid": "970",
        "lat": "43.78745",
        "lng": "-0.9242",
        "nom": "Embarquez pour les Barthes !",
        "terrain": "2",
        "difficulte": "3",
        "ville": "Pontonx-sur-l'Adour",
        "type":"Zahan",
        "saison": "12",
        "dpt": "40"
    },
    {
        "nid": "489",
        "lat": "43.7233167",
        "lng": "-1.05365",
        "nom": "Compostelle fait son numéro !",
        "terrain": "2",
        "difficulte": "1",
        "ville": "Saint-Paul-lès-Dax",
        "type":"Zacquet",
        "saison": "9",
        "dpt": "40"
    },
    {
        "nid": "590",
        "lat": "43.5713167",
        "lng": "-0.92925",
        "nom": "Cours sur le haricot…",
        "terrain": "2",
        "difficulte": "2",
        "ville": "Habas",
        "type":"Zabeth",
        "saison": "10",
        "dpt": "40"
    },
    {
        "nid": "290",
        "lat": "44.3426",
        "lng": "-1.0986167",
        "nom": "L’or noir du pays de Born",
        "terrain": "2",
        "difficulte": "2",
        "ville": "Parentis-en-Born",
        "type":"Zeidon",
        "saison": "8",
        "dpt": "40"
    },
    {
        "nid": "490",
        "lat": "43.7085",
        "lng": "-1.1208833",
        "nom": "La tourbière aux sesterces",
        "terrain": "1",
        "difficulte": "2",
        "ville": "Mées",
        "type":"Zecolo",
        "saison": "9",
        "dpt": "40"
    },
    {
        "nid": "285",
        "lat": "44.21905",
        "lng": "-1.2045333",
        "nom": "L'arche de Zahan",
        "terrain": "2",
        "difficulte": "3",
        "ville": "Aureilhan",
        "type":"Zahan",
        "saison": "8",
        "dpt": "40"
    },
    {
        "nid": "286",
        "lat": "44.3292167",
        "lng": "-1.1497833",
        "nom": "La folle quête de Sainte Quitterie",
        "terrain": "1",
        "difficulte": "1",
        "ville": "Gastes",
        "type":"Zelle",
        "saison": "8",
        "dpt": "40"
    },
    {
        "nid": "292",
        "lat": "44.3302833",
        "lng": "-0.9754667",
        "nom": "La complainte du tulipier",
        "terrain": "1",
        "difficulte": "2",
        "ville": "Ychoux",
        "type":"Zouch",
        "saison": "8",
        "dpt": "40"
    },
    {
        "nid": "470",
        "lat": "43.8486833",
        "lng": "-1.3592167",
        "nom": "Le petit Squiroù",
        "terrain": "3",
        "difficulte": "3",
        "ville": "Moliets-et-Maâ",
        "type":"Zouch",
        "saison": "9",
        "dpt": "40"
    },
    {
        "nid": "349",
        "lat": "43.71205",
        "lng": "-1.053",
        "nom": "Le périple du légionnaire",
        "terrain": "1",
        "difficulte": "2",
        "ville": "Dax",
        "type":"Zigomatix",
        "saison": "8",
        "dpt": "40"
    },
    {
        "nid": "288",
        "lat": "43.6023",
        "lng": "-0.3328667",
        "nom": "La fabuleuse forêt des Landes",
        "terrain": "3",
        "difficulte": "2",
        "ville": "Miramont-Sensacq",
        "type":"Zecolo",
        "saison": "8",
        "dpt": "40"
    },
    {
        "nid": "609",
        "lat": "43.6998167",
        "lng": "-0.2618333",
        "nom": "En tête-à-tête avec Quitterie",
        "terrain": "3",
        "difficulte": "4",
        "ville": "Aire-sur-l’Adour",
        "type":"Zacquet",
        "saison": "10",
        "dpt": "40"
    },
    {
        "nid": "1470",
        "lat": "44.0333167",
        "lng": "-0.3171833",
        "nom": "Estamponné : « Roquefort » !",
        "terrain": "2",
        "difficulte": "2",
        "ville": "Roquefort",
        "type":"Zacquet",
        "saison": "13",
        "dpt": "40"
    },
    {
        "nid": "1500",
        "lat": "43.5344833",
        "lng": "-1.1507833",
        "nom": "Petit Hastinguot, porte sur son dos…",
        "terrain": "3",
        "difficulte": "2",
        "ville": "Hastingues",
        "type":"Zelle",
        "saison": "13",
        "dpt": "40"
    },
    {
        "nid": "900",
        "lat": "43.7668667",
        "lng": "-0.9304667",
        "nom": "Valet de cœur, à vous l’honneur !",
        "terrain": "2",
        "difficulte": "2",
        "ville": "Préchacq-les-Bains",
        "type":"Ziclou",
        "saison": "12",
        "dpt": "40"
    },
    {
        "nid": "454",
        "lat": "43.63795",
        "lng": "-0.38175",
        "nom": "La fuite des florins",
        "terrain": "1",
        "difficulte": "3",
        "ville": "Geaune",
        "type":"Zabeth",
        "saison": "9",
        "dpt": "40"
    },
    {
        "nid": "753",
        "lat": "43.92125",
        "lng": "-1.2475",
        "nom": "La mayade des gens z’heureux",
        "terrain": "2",
        "difficulte": "3",
        "ville": "Linxe / Vielle-Saint-Girons",
        "type":"Ziclou",
        "saison": "11",
        "dpt": "40"
    },
    {
        "nid": "1467",
        "lat": "43.63375",
        "lng": "-0.6951167",
        "nom": "La petite bouille de Brassempouy",
        "terrain": "3",
        "difficulte": "2",
        "ville": "Brassempouy",
        "type":"Zilex",
        "saison": "13",
        "dpt": "40"
    },
    {
        "nid": "351",
        "lat": "43.73525",
        "lng": "-1.0670833",
        "nom": "Les bâtisseurs de Christus",
        "terrain": "1",
        "difficulte": "1",
        "ville": "Saint-Paul-lès-Dax",
        "type":"Zouti",
        "saison": "8",
        "dpt": "40"
    },
    {
        "nid": "802",
        "lat": "43.9690833",
        "lng": "-0.1874333",
        "nom": "Longue vie à l’Armagnac !",
        "terrain": "2",
        "difficulte": "2",
        "ville": "Labastide-d’Armagnac",
        "type":"Zalambic",
        "saison": "11",
        "dpt": "40"
    },
    {
        "nid": "2700",
        "lat": "44.0464167",
        "lng": "-0.65145",
        "nom": "Mauvaiz’es graines !",
        "terrain": "3",
        "difficulte": "3",
        "ville": "Garein",
        "type":"Zouch",
        "saison": "15",
        "dpt": "40"
    },
    {
        "nid": "439",
        "lat": "44.00445",
        "lng": "-1.1680833",
        "nom": "Merci bécut !",
        "terrain": "1",
        "difficulte": "2",
        "ville": "Lévignacq",
        "type":"Zouti",
        "saison": "9",
        "dpt": "40"
    },
    {
        "nid": "551",
        "lat": "43.8716",
        "lng": "-1.0720667",
        "nom": "Mignon des sources",
        "terrain": "2",
        "difficulte": "3",
        "ville": "Taller ",
        "type":"Zarthus",
        "saison": "9",
        "dpt": "40"
    },
    {
        "nid": "757",
        "lat": "43.71565",
        "lng": "-0.834",
        "nom": "Montfort, y’a pas plus fort !",
        "terrain": "3",
        "difficulte": "3",
        "ville": "Montfort-en-Chalosse",
        "type":"Zarthus",
        "saison": "11",
        "dpt": "40"
    },
    {
        "nid": "908",
        "lat": "43.90195",
        "lng": "-0.2704333",
        "nom": "Ognoas, perle de l'Armagnac",
        "terrain": "2",
        "difficulte": "3",
        "ville": "Arthez-d’Armagnac / Le Frêche",
        "type":"Zouti",
        "saison": "12",
        "dpt": "40"
    },
    {
        "nid": "549",
        "lat": "43.5438833",
        "lng": "-1.1008167",
        "nom": "Peyrehorade : ki dit wi ?! ",
        "terrain": "3",
        "difficulte": "3",
        "ville": "Peyrehorade ",
        "type":"Zechopp",
        "saison": "9",
        "dpt": "40"
    },
    {
        "nid": "474",
        "lat": "43.6565333",
        "lng": "-1.1873667",
        "nom": "Priorité à bâbord !",
        "terrain": "1",
        "difficulte": "2",
        "ville": "Saubusse-les-Bains",
        "type":"Zeidon",
        "saison": "9",
        "dpt": "40"
    },
    {
        "nid": "352",
        "lat": "43.7414167",
        "lng": "-0.9997",
        "nom": "Saint Vincent à toutes berzingues",
        "terrain": "1",
        "difficulte": "2",
        "ville": "Saint Vincent de Paul",
        "type":"Zabeth",
        "saison": "8",
        "dpt": "40"
    },
    {
        "nid": "968",
        "lat": "43.7451333",
        "lng": "-0.20145",
        "nom": "Sorcières sur l’Adour",
        "terrain": "3",
        "difficulte": "4",
        "ville": "Aire-sur-l'Adour",
        "type":"Zenight",
        "saison": "12",
        "dpt": "40"
    },
    {
        "nid": "2139",
        "lat": "43.7109333",
        "lng": "-1.0524167",
        "nom": "Street Art Thérapie",
        "terrain": "1",
        "difficulte": "3",
        "ville": "Dax",
        "type":"Zegraff",
        "saison": "14",
        "dpt": "40"
    },
    {
        "nid": "446",
        "lat": "43.6396667",
        "lng": "-1.4312167",
        "nom": "Vingt mille lieues sous l’amer",
        "terrain": "2",
        "difficulte": "2",
        "ville": "Capbreton",
        "type":"Zisséo",
        "saison": "9",
        "dpt": "40"
    },
    {
        "nid": "755",
        "lat": "43.763",
        "lng": "-0.57315",
        "nom": "Un ange tombé du ciel",
        "terrain": "2",
        "difficulte": "3",
        "ville": "Saint-Sever",
        "type":"Zeroïk",
        "saison": "11",
        "dpt": "40"
    },
    {
        "nid": "350",
        "lat": "43.7104",
        "lng": "-1.0759333",
        "nom": "Zabeth prend les z'eaux",
        "terrain": "1",
        "difficulte": "3",
        "ville": "Dax",
        "type":"Zeidon",
        "saison": "8",
        "dpt": "40"
    },